$GPGSA,A,1,,,,,,,,,,,,,,,,*32

$GPGSA,A,1,,,,,,,,,,,,,,,,*32

$GPVTG,,T,,M,,N,,K,N*2C

$GPVTG,,T,,M,,N,,K,N*2C

$GPDTM,,,,,,,,*4A

$GPDTM,,,,,,,,*4A

$GPRMC,,V,,,,,,,,,,N,V*29

$GPGNS,,,,,,N,,,,,,,V*79

$GPGGA,,,,,,0,,,,,,,,*66

$GPRMC,,V,,,,,,,,,,N,V*29

$GPGNS,,,,,,N,,,,,,,V*79

$GPGGA,,,,,,0,,,,,,,,*66

$GPGSV,3,1,11,16,66,284,36,05,17,037,,07,02,336,,08,01,261,,1*62

$GPGSV,3,1,11,16,66,284,36,05,17,037,,07,02,336,,08,01,261,,1*62

$GPGSV,3,2,11,09,03,307,,18,63,097,,23,15,130,,26,71,181,,1*64

$GPGSV,3,3,11,28,02,185,,29,21,075,,31,21,201,,1*58

$GPGSV,3,2,11,09,03,307,,18,63,097,,23,15,130,,26,71,181,,1*64

$GPGSV,3,3,11,28,02,185,,29,21,075,,31,21,201,,1*58

$GLGSV,2,1,07,78,53,307,,70,15,018,,86,26,045,,77,54,171,,1*76

$GLGSV,2,2,07,76,10,154,,88,37,226,,87,81,036,,1*4E

$GLGSV,2,1,07,78,53,307,,70,15,018,,86,26,045,,77,54,171,,1*76

$GLGSV,2,2,07,76,10,154,,88,37,226,,87,81,036,,1*4E

$GPGSA,A,1,,,,,,,,,,,,,,,,*32

$GPVTG,,T,,M,,N,,K,N*2C

$GPDTM,,,,,,,,*4A

$GPRMC,,V,,,,,,,,,,N,V*29

$GPGNS,,,,,,N,,,,,,,V*79

$GPGGA,,,,,,0,,,,,,,,*66

$GPGSA,A,1,,,,,,,,,,,,,,,,*32

$GPGSA,A,1,,,,,,,,,,,,,,,,*32

$GPGSA,A,1,,,,,,,,,,,,,,,,*32

$GPGSA,A,1,,,,,,,,,,,,,,,,*32

$GPVTG,,T,,M,,N,,K,N*2C

$GPVTG,,T,,M,,N,,K,N*2C

$GPVTG,,T,,M,,N,,K,N*2C

$GPDTM,,,,,,,,*4A

$GPRMC,,V,,,,,,,,,,N,V*29

$GPGNS,,,,,,N,,,,,,,V*79

$GPDTM,,,,,,,,*4A

$GPRMC,,V,,,,,,,,,,N,V*29

$GPGGA,,,,,,0,,,,,,,,*66

$GPGGA,,,,,,0,,,,,,,,*66

$GPGSV,3,1,12,05,16,036,25,18,63,092,23,26,68,178,33,27,00,000,36,1*67

$GPGSV,3,2,12,29,19,075,28,31,19,201,25,07,02,336,,08,02,262,,1*6C

$GPGSV,3,3,12,09,02,306,,16,67,282,,23,16,129,,28,00,000,,1*61

$GLGSV,2,1,06,86,24,045,24,88,40,227,24,87,79,035,30,78,55,306,,1*79

$GLGSV,2,2,06,70,15,016,,77,52,171,,1*7A

$GPGSV,3,1,12,05,16,036,25,18,63,092,23,26,68,178,33,27,00,000,36,1*67

$GPGSV,3,2,12,29,19,075,28,31,19,201,25,07,02,336,,08,02,262,,1*6C

$GPGSV,3,3,12,09,02,306,,16,67,282,,23,16,129,,28,00,000,,1*61

$GLGSV,2,1,06,86,24,045,24,88,40,227,24,87,79,035,30,78,55,306,,1*79

$GLGSV,2,2,06,70,15,016,,77,52,171,,1*7A

$GPGSV,3,1,12,05,16,036,25,18,63,092,23,26,68,178,33,27,00,000,36,1*67

$GPGSV,3,2,12,29,19,075,28,31,19,201,25,07,02,336,,08,02,262,,1*6C

$GPGSV,3,3,12,09,02,306,,16,67,282,,23,16,129,,28,00,000,,1*61

$GPGSV,3,1,12,05,16,036,25,16,67,282,21,18,63,092,21,23,16,129,22,1*60

$GPGSV,3,1,12,05,16,036,25,16,67,282,21,18,63,092,21,23,16,129,22,1*60

$GPGSV,3,1,12,05,16,036,25,16,67,282,21,18,63,092,21,23,16,129,22,1*60

$GPGSV,3,2,12,26,68,178,31,27,00,000,36,29,19,075,26,31,19,201,26,1*68

$GPGSV,3,3,12,07,02,336,,08,02,262,,09,02,306,,28,00,000,,1*6C

$GLGSV,2,1,06,86,24,045,23,88,40,227,25,87,79,035,30,78,55,306,,1*7F

$GPGSV,3,2,12,26,68,178,31,27,00,000,36,29,19,075,26,31,19,201,26,1*68

$GPGSV,3,3,12,07,02,336,,08,02,262,,09,02,306,,28,00,000,,1*6C

$GLGSV,2,1,06,86,24,045,23,88,40,227,25,87,79,035,30,78,55,306,,1*7F

$GLGSV,2,2,06,70,15,016,,77,52,171,,1*7A

$GAGSV,3,1,09,12,40,192,29,24,59,289,37,25,08,305,28,31,61,147,32,7*76

$GPGSV,3,3,12,07,02,336,,08,02,262,,09,02,306,,28,00,000,,1*6C

$GBGSV,2,1,08,27,48,066,37,29,18,237,28,30,74,220,31,05,07,112,,1*7C

$GBGSV,2,2,08,08,31,036,,13,38,053,,14,07,008,,28,04,060,,1*7C

$GNGSA,A,3,86,87,88,,,,,,,,,,1.1,0.8,0.7,2*3C

$GNVTG,346.2,T,346.2,M,0.6,N,1.1,K,A*3B

$GNRMC,164208.00,A,5345.876422,N,00241.756005,W,0.6,346.2,060224,4.8,W,A,V*5F

$GNGSA,A,3,86,87,88,,,,,,,,,,1.1,0.8,0.7,2*3C

$GNGSA,A,3,12,24,25,31,,,,,,,,,1.1,0.8,0.7,3*3C

$GNGGA,164208.00,5345.876422,N,00241.756005,W,1,12,0.8,106.9,M,47.4,M,,*67

$GAGSV,3,3,09,33,65,088,,7*49

$GNGSA,A,3,05,16,18,23,26,29,31,,,,,,1.1,0.8,0.7,1*39

$GNGSA,A,3,12,24,25,31,,,,,,,,,1.1,0.8,0.7,3*3C

$GNRMC,164208.00,A,5345.876422,N,00241.756005,W,0.6,346.2,060224,4.8,W,A,V*5F

$GNGNS,164208.00,5345.876422,N,00241.756005,W,AAA,14,0.8,106.9,47.4,,,V*70

$GNGGA,164208.00,5345.876422,N,00241.756005,W,1,12,0.8,106.9,M,47.4,M,,*67

$GPGSV,3,1,12,05,16,036,25,16,67,282,24,18,63,092,20,23,16,129,23,1*65

$GPGSV,3,2,12,26,68,178,28,27,00,000,35,29,19,075,24,31,19,201,28,1*6F

$GPGSV,3,3,12,07,02,336,,08,02,262,,09,02,306,,28,00,000,,1*6C

$GLGSV,2,1,06,86,24,045,23,88,40,227,27,87,79,035,30,78,55,306,,1*7D

$GLGSV,2,2,06,70,15,016,,77,52,171,,1*7A

$GAGSV,3,1,09,12,40,192,28,24,59,289,36,25,08,305,28,31,61,147,31,7*75

$GPGSV,3,1,12,05,16,036,25,16,67,282,24,18,63,092,20,23,16,129,23,1*65

$GPGSV,3,2,12,26,68,178,28,27,00,000,35,29,19,075,24,31,19,201,28,1*6F

$GPGSV,3,3,12,07,02,336,,08,02,262,,09,02,306,,28,00,000,,1*6C

$GLGSV,2,1,06,86,24,045,23,88,40,227,27,87,79,035,30,78,55,306,,1*7D

$GLGSV,2,2,06,70,15,016,,77,52,171,,1*7A

$GAGSV,3,1,09,12,40,192,28,24,59,289,36,25,08,305,28,31,61,147,31,7*75

$GAGSV,3,2,09,03,07,317,,08,04,004,,10,18,203,,26,23,045,,7*7F

$GBGSV,2,1,08,27,48,066,36,29,18,237,28,30,74,220,32,05,07,112,,1*7E

$GPGSV,3,1,12,05,16,036,25,16,67,282,24,18,63,092,20,23,16,129,23,1*65

$GLGSV,2,1,06,86,24,045,23,88,40,227,27,87,79,035,30,78,55,306,,1*7D

$GAGSV,3,1,09,12,40,192,28,24,59,289,36,25,08,305,28,31,61,147,31,7*75

$GAGSV,3,2,09,03,07,317,,08,04,004,,10,18,203,,26,23,045,,7*7F

$GNGSA,A,3,86,87,88,,,,,,,,,,1.1,0.8,0.7,2*3C

$GAGSV,3,3,09,33,65,088,,7*49

$GBGSV,2,2,08,08,31,036,,13,38,053,,14,07,008,,28,04,060,,1*7C

$GNGSA,A,3,12,24,25,31,,,,,,,,,1.1,0.8,0.7,3*3C

$GNGNS,164209.00,5345.859304,N,00241.780198,W,AAA,14,0.8,46.0,47.4,,,V*4D

$GNGSA,A,3,86,87,88,,,,,,,,,,1.1,0.8,0.7,2*3C

$GNVTG,297.0,T,297.0,M,1.4,N,2.6,K,A*3C

$GNRMC,164209.00,A,5345.859304,N,00241.780198,W,1.4,297.0,060224,4.8,W,A,V*52

$GNRMC,164209.00,A,5345.859304,N,00241.780198,W,1.4,297.0,060224,4.8,W,A,V*52

$GNGNS,164209.00,5345.859304,N,00241.780198,W,AAA,14,0.8,46.0,47.4,,,V*4D

$GPGSV,3,1,12,05,16,036,24,16,67,282,24,18,63,092,20,23,16,129,24,1*63

$GPGSV,3,2,12,26,68,178,28,27,00,000,35,29,19,075,26,31,19,201,27,1*62

$GPGSV,3,3,12,07,02,336,,08,02,262,,09,02,306,,28,00,000,,1*6C

$GLGSV,2,1,06,86,24,045,24,88,40,227,27,87,79,035,31,78,55,306,,1*7B

$GLGSV,2,2,06,70,15,016,,77,52,171,,1*7A

$GAGSV,3,1,09,12,40,192,29,24,59,289,36,25,08,305,27,31,61,147,32,7*78

$GAGSV,3,2,09,03,07,317,,08,04,004,,10,18,203,,26,23,045,,7*7F

$GPGSV,3,1,12,05,16,036,24,16,67,282,24,18,63,092,20,23,16,129,24,1*63

$GPGSV,3,2,12,26,68,178,28,27,00,000,35,29,19,075,26,31,19,201,27,1*62

$GPGSV,3,3,12,07,02,336,,08,02,262,,09,02,306,,28,00,000,,1*6C

$GLGSV,2,1,06,86,24,045,24,88,40,227,27,87,79,035,31,78,55,306,,1*7B

$GBGSV,2,2,08,08,31,036,,14,07,008,,27,48,066,,28,04,060,,1*7A

$GPGSV,3,3,12,07,02,336,,08,02,262,,09,02,306,,28,00,000,,1*6C

$GLGSV,2,1,06,86,24,045,24,88,40,227,27,87,79,035,31,78,55,306,,1*7B

$GAGSV,3,3,09,33,65,088,,7*49

$GBGSV,2,1,08,13,38,053,26,29,18,237,29,30,74,220,31,05,07,112,,1*7B

$GNGSA,A,3,05,16,18,23,26,29,31,,,,,,1.1,0.8,0.7,1*39

$GNVTG,279.3,T,279.3,M,1.0,N,1.9,K,A*34

$GNRMC,164210.00,A,5345.856810,N,00241.782033,W,1.0,279.3,060224,4.8,W,A,V*5E

$GAGSV,3,3,09,33,65,088,,7*49

$GBGSV,2,1,08,13,38,053,26,29,18,237,29,30,74,220,31,05,07,112,,1*7B

$GNGSA,A,3,05,16,18,23,26,29,31,,,,,,1.1,0.8,0.7,1*39

$GNGSA,A,3,12,24,25,31,,,,,,,,,1.1,0.8,0.7,3*3C

$GNDTM,P90,,0000.000025,S,00000.000001,E,0.971,W84*57

$GNGNS,164210.00,5345.856810,N,00241.782033,W,AAA,14,0.8,47.5,47.4,,,V*42

$GNGSA,A,3,86,87,88,,,,,,,,,,1.1,0.8,0.7,2*3C

$GNDTM,P90,,0000.000025,S,00000.000001,E,0.971,W84*57

$GNGGA,164210.00,5345.856810,N,00241.782033,W,1,12,0.8,47.5,M,47.4,M,,*55

$GPGSV,3,1,12,05,16,036,23,16,67,282,25,18,63,092,20,23,16,129,25,1*64

$GPGSV,3,2,12,26,68,178,28,27,00,000,35,29,19,075,25,31,19,201,27,1*61

$GPGSV,3,3,12,07,02,336,,08,02,262,,09,02,306,,28,00,000,,1*6C

$GLGSV,2,1,06,86,24,045,24,88,40,227,27,87,79,035,31,78,55,306,,1*7B

$GLGSV,2,2,06,70,15,016,,77,52,171,,1*7A

$GAGSV,3,1,09,12,40,192,29,24,59,289,36,25,08,305,28,31,61,147,32,7*77

$GAGSV,3,2,09,03,07,317,,08,04,004,,10,18,203,,26,23,045,,7*7F

$GAGSV,3,3,09,33,65,088,,7*49

$GBGSV,2,1,08,13,38,053,27,29,18,237,28,30,74,220,31,05,07,112,,1*7B

$GBGSV,2,2,08,08,31,036,,14,07,008,,27,48,066,,28,04,060,,1*7A

$GNGSA,A,3,05,16,18,23,26,29,31,,,,,,1.1,0.8,0.7,1*39

$GNGSA,A,3,86,87,88,,,,,,,,,,1.1,0.8,0.7,2*3C

$GLGSV,2,1,06,86,24,045,24,88,40,227,27,87,79,035,31,78,55,306,,1*7B

$GAGSV,3,1,09,12,40,192,29,24,59,289,36,25,08,305,28,31,61,147,32,7*77

$GBGSV,2,1,08,13,38,053,27,29,18,237,28,30,74,220,31,05,07,112,,1*7B

$GBGSV,2,2,08,08,31,036,,14,07,008,,27,48,066,,28,04,060,,1*7A

$GNGSA,A,3,86,87,88,,,,,,,,,,1.1,0.8,0.7,2*3C

$GNVTG,29.6,T,29.6,M,0.7,N,1.4,K,A*3F

$GNRMC,164211.00,A,5345.858769,N,00241.777562,W,0.7,29.6,060224,4.8,W,A,V*6F

$GPGSV,3,1,12,05,16,036,23,16,67,282,25,18,63,092,20,23,16,129,25,1*64

$GLGSV,2,2,06,70,15,016,,77,52,171,,1*7A

$GAGSV,3,3,09,33,65,088,,7*49

$GBGSV,2,1,08,13,38,053,27,29,18,237,28,30,74,220,31,05,07,112,,1*7B

$GNGSA,A,3,12,24,25,31,,,,,,,,,1.1,0.8,0.7,3*3C

$GNDTM,P90,,0000.000025,S,00000.000001,E,0.971,W84*57

$GNGGA,164211.00,5345.858769,N,00241.777562,W,1,12,0.8,48.1,M,47.4,M,,*5B

$GNVTG,29.6,T,29.6,M,0.7,N,1.4,K,A*3F

$GNDTM,P90,,0000.000025,S,00000.000001,E,0.971,W84*57

$GNGNS,164211.00,5345.858769,N,00241.777562,W,AAA,14,0.8,48.1,47.4,,,V*4C

$GPGSV,3,1,12,05,16,036,24,16,67,282,26,18,63,092,20,23,16,129,25,1*60

$GPGSV,3,2,12,26,68,178,28,27,00,000,35,29,19,075,25,31,19,201,27,1*61

$GPGSV,3,3,12,07,02,336,,08,02,262,,09,02,306,,28,00,000,,1*6C

$GLGSV,2,1,06,86,24,045,26,88,40,227,27,87,79,035,31,78,55,306,,1*79

$GLGSV,2,2,06,70,15,016,,77,52,171,,1*7A

$GAGSV,3,1,09,12,40,192,29,24,59,289,35,25,08,305,27,31,61,147,32,7*7B

$GPGSV,3,1,12,05,16,036,24,16,67,282,26,18,63,092,20,23,16,129,25,1*60

$GPGSV,3,2,12,26,68,178,28,27,00,000,35,29,19,075,25,31,19,201,27,1*61

$GPGSV,3,3,12,07,02,336,,08,02,262,,09,02,306,,28,00,000,,1*6C

$GLGSV,2,1,06,86,24,045,26,88,40,227,27,87,79,035,31,78,55,306,,1*79

$GLGSV,2,2,06,70,15,016,,77,52,171,,1*7A

$GAGSV,3,1,09,12,40,192,29,24,59,289,35,25,08,305,27,31,61,147,32,7*7B

$GAGSV,3,2,09,03,07,317,,08,04,004,,10,18,203,,26,23,045,,7*7F

$GAGSV,3,3,09,33,65,088,,7*49

$GBGSV,2,1,08,13,38,053,27,29,18,237,29,30,74,220,31,05,07,112,,1*7A

$GBGSV,2,2,08,08,31,036,,14,07,008,,27,48,066,,28,04,060,,1*7A

$GAGSV,3,3,09,33,65,088,,7*49

$GBGSV,2,1,08,13,38,053,27,29,18,237,29,30,74,220,31,05,07,112,,1*7A

$GNGSA,A,3,05,16,18,23,26,29,31,,,,,,1.1,0.8,0.7,1*39

$GNVTG,41.8,T,41.8,M,0.9,N,1.7,K,A*32

$GNRMC,164212.00,A,5345.859552,N,00241.774255,W,0.9,41.8,060224,4.8,W,A,V*69

$GPGSV,3,1,12,05,16,036,24,16,67,282,26,18,63,092,20,23,16,129,25,1*60

$GPGSV,3,3,12,07,02,336,,08,02,262,,09,02,306,,28,00,000,,1*6C

$GLGSV,2,2,06,70,15,016,,77,52,171,,1*7A

$GAGSV,3,3,09,33,65,088,,7*49

$GNGSA,A,3,05,16,18,23,26,29,31,,,,,,1.1,0.8,0.7,1*39

$GNGSA,A,3,12,24,25,31,,,,,,,,,1.1,0.8,0.7,3*3C

$GNDTM,P90,,0000.000025,S,00000.000001,E,0.971,W84*57

$GNGNS,164212.00,5345.859552,N,00241.774255,W,AAA,14,0.8,52.7,47.4,,,V*49

$GNGSA,A,3,05,16,18,23,26,29,31,,,,,,1.1,0.8,0.7,1*39

$GNGSA,A,3,86,87,88,,,,,,,,,,1.1,0.8,0.7,2*3C

$GNVTG,41.8,T,41.8,M,0.9,N,1.7,K,A*32

$GNGNS,164212.00,5345.859552,N,00241.774255,W,AAA,14,0.8,52.7,47.4,,,V*49

$GPGSV,3,1,12,05,16,036,24,16,67,282,27,18,63,092,20,23,16,129,25,1*61

$GPGSV,3,2,12,26,68,178,27,27,00,000,35,29,19,075,26,31,19,201,27,1*6D

$GPGSV,3,3,12,07,02,336,,08,02,262,,09,02,306,,28,00,000,,1*6C

$GLGSV,2,1,06,86,24,045,25,88,40,227,27,87,79,035,31,78,55,306,,1*7A

$GLGSV,2,2,06,70,15,016,,77,52,171,,1*7A

$GAGSV,2,1,08,12,40,192,28,24,59,289,35,25,08,305,26,31,61,147,32,7*7B

$GAGSV,2,2,08,03,07,317,,08,04,004,,10,18,203,,26,23,045,,7*7F

$GBGSV,2,1,08,13,38,053,26,29,18,237,28,30,74,220,31,05,07,112,,1*7A

$GBGSV,2,2,08,08,31,036,,14,07,008,,27,48,066,,28,04,060,,1*7A

$GPGSV,3,1,12,05,16,036,24,16,67,282,27,18,63,092,20,23,16,129,25,1*61

$GPGSV,3,2,12,26,68,178,27,27,00,000,35,29,19,075,26,31,19,201,27,1*6D

$GPGSV,3,3,12,07,02,336,,08,02,262,,09,02,306,,28,00,000,,1*6C

$GLGSV,2,1,06,86,24,045,25,88,40,227,27,87,79,035,31,78,55,306,,1*7A

$GAGSV,2,2,08,03,07,317,,08,04,004,,10,18,203,,26,23,045,,7*7F

$GNVTG,232.5,T,232.5,M,0.4,N,0.8,K,A*31

$GPGSV,3,1,12,05,16,036,24,16,67,282,27,18,63,092,20,23,16,129,25,1*61

$GLGSV,2,2,06,70,15,016,,77,52,171,,1*7A

$GAGSV,2,2,08,03,07,317,,08,04,004,,10,18,203,,26,23,045,,7*7F

$GNGSA,A,3,05,16,18,23,26,29,31,,,,,,1.1,0.8,0.7,1*39

$GNGSA,A,3,12,24,25,31,,,,,,,,,1.1,0.8,0.7,3*3C

$GNDTM,P90,,0000.000025,S,00000.000001,E,0.971,W84*57

$GNGNS,164213.00,5345.858863,N,00241.776169,W,AAA,14,0.8,49.8,47.4,,,V*4D

$GNGSA,A,3,05,16,18,23,26,29,31,,,,,,1.1,0.8,0.7,1*39

$GNGSA,A,3,86,87,88,,,,,,,,,,1.1,0.8,0.7,2*3C

$GNGSA,A,3,12,24,25,31,,,,,,,,,1.1,0.8,0.7,3*3C

$GNDTM,P90,,0000.000025,S,00000.000001,E,0.971,W84*57

$GNGGA,164213.00,5345.858863,N,00241.776169,W,1,12,0.8,49.8,M,47.4,M,,*5A

$GNGGA,164213.00,5345.858863,N,00241.776169,W,1,12,0.8,49.8,M,47.4,M,,*5A

$GPGSV,3,1,12,05,16,036,22,16,67,282,27,18,63,092,20,23,16,129,25,1*67

$GPGSV,3,2,12,26,68,178,27,27,00,000,35,29,19,075,25,31,19,201,27,1*6E

$GPGSV,3,3,12,07,02,336,,08,02,262,,09,02,306,,28,00,000,,1*6C

$GLGSV,2,1,06,86,24,045,25,88,40,227,27,87,79,035,31,78,55,306,,1*7A

$GLGSV,2,2,06,70,15,016,,77,52,171,,1*7A

$GAGSV,2,1,08,12,40,192,28,24,59,289,35,25,08,305,27,31,61,147,32,7*7A

$GAGSV,2,2,08,03,07,317,,08,04,004,,10,18,203,,26,23,045,,7*7F

$GBGSV,2,1,08,13,38,053,27,27,48,066,36,29,18,237,28,30,74,220,31,1*77

$GBGSV,2,2,08,05,07,112,,08,31,036,,14,07,008,,28,04,060,,1*73

$GPGSV,3,1,12,05,16,036,22,16,67,282,27,18,63,092,20,23,16,129,25,1*67

$GPGSV,3,2,12,26,68,178,27,27,00,000,35,29,19,075,25,31,19,201,27,1*6E

$GPGSV,3,3,12,07,02,336,,08,02,262,,09,02,306,,28,00,000,,1*6C

$GLGSV,2,1,06,86,24,045,25,88,40,227,27,87,79,035,31,78,55,306,,1*7A

$GLGSV,2,2,06,70,15,016,,77,52,171,,1*7A

$GAGSV,2,1,08,12,40,192,28,24,59,289,35,25,08,305,27,31,61,147,32,7*7A

$GBGSV,2,1,08,13,38,053,27,27,48,066,36,29,18,237,28,30,74,220,31,1*77

$GNGSA,A,3,05,16,18,23,26,29,31,,,,,,1.1,0.8,0.7,1*39

$GNVTG,219.1,T,219.1,M,0.5,N,0.9,K,A*31

$GNRMC,164214.00,A,5345.858627,N,00241.777126,W,0.5,219.1,060224,4.8,W,A,V*51

$GNGGA,164214.00,5345.858627,N,00241.777126,W,1,12,0.8,49.4,M,47.4,M,,*55

$GPGSV,3,2,12,26,68,178,27,27,00,000,35,29,19,075,25,31,19,201,27,1*6E

$GLGSV,2,1,06,86,24,045,25,88,40,227,27,87,79,035,31,78,55,306,,1*7A

$GAGSV,2,1,08,12,40,192,28,24,59,289,35,25,08,305,27,31,61,147,32,7*7A

$GBGSV,2,2,08,05,07,112,,08,31,036,,14,07,008,,28,04,060,,1*73

$GNGSA,A,3,86,87,88,,,,,,,,,,1.1,0.8,0.7,2*3C

$GNVTG,219.1,T,219.1,M,0.5,N,0.9,K,A*31

$GNRMC,164214.00,A,5345.858627,N,00241.777126,W,0.5,219.1,060224,4.8,W,A,V*51

$GNGGA,164214.00,5345.858627,N,00241.777126,W,1,12,0.8,49.4,M,47.4,M,,*55

$GNGSA,A,3,05,16,18,23,26,29,31,,,,,,1.1,0.8,0.7,1*39

$GNGSA,A,3,86,87,88,,,,,,,,,,1.1,0.8,0.7,2*3C

$GNDTM,P90,,0000.000025,S,00000.000001,E,0.971,W84*57

$GNGNS,164214.00,5345.858627,N,00241.777126,W,AAA,14,0.8,49.4,47.4,,,V*42

$GPGSV,3,1,12,05,16,036,23,16,67,282,26,18,63,092,22,23,16,129,25,1*65

$GPGSV,3,1,12,05,16,036,23,16,67,282,26,18,63,092,22,23,16,129,25,1*65

$GPGSV,3,1,12,05,16,036,23,16,67,282,26,18,63,092,22,23,16,129,25,1*65

$GPGSV,3,2,12,26,68,178,27,27,00,000,34,29,19,075,24,31,19,201,26,1*6F

$GPGSV,3,2,12,26,68,178,27,27,00,000,34,29,19,075,24,31,19,201,26,1*6F

$GPGSV,3,3,12,07,02,336,,08,02,262,,09,02,306,,28,00,000,,1*6C

$GLGSV,2,1,06,86,24,045,25,88,40,227,28,87,79,035,31,78,55,306,,1*75

$GLGSV,2,2,06,70,15,016,,77,52,171,,1*7A

$GPGSV,3,3,12,07,02,336,,08,02,262,,09,02,306,,28,00,000,,1*6C

$GLGSV,2,1,06,86,24,045,25,88,40,227,28,87,79,035,31,78,55,306,,1*75

$GLGSV,2,2,06,70,15,016,,77,52,171,,1*7A

$GAGSV,2,1,08,12,40,192,28,24,59,289,35,25,08,305,28,31,61,147,31,7*76

$GAGSV,2,2,08,03,07,317,,08,04,004,,10,18,203,,26,23,045,,7*7F

$GAGSV,2,1,08,12,40,192,28,24,59,289,35,25,08,305,28,31,61,147,31,7*76

$GAGSV,2,2,08,03,07,317,,08,04,004,,10,18,203,,26,23,045,,7*7F

$GBGSV,2,1,08,13,38,053,27,27,48,066,36,29,18,237,29,30,74,220,31,1*76

$GBGSV,2,2,08,05,07,112,,08,31,036,,14,07,008,,28,04,060,,1*73

$GNGSA,A,3,05,16,18,23,26,29,31,,,,,,1.1,0.8,0.7,1*39

$GNGSA,A,3,86,87,88,,,,,,,,,,1.1,0.8,0.7,2*3C

$GBGSV,2,2,08,05,07,112,,08,31,036,,14,07,008,,28,04,060,,1*73

$GNRMC,164215.00,A,5345.858158,N,00241.777665,W,0.0,,060224,4.8,W,A,V*7F

$GPGSV,3,3,12,07,02,336,,08,02,262,,09,02,306,,28,00,000,,1*6C

$GLGSV,2,1,06,86,24,045,25,88,40,227,28,87,79,035,31,78,55,306,,1*75

$GAGSV,2,2,08,03,07,317,,08,04,004,,10,18,203,,26,23,045,,7*7F

$GNGSA,A,3,05,16,18,23,26,29,31,,,,,,1.1,0.8,0.7,1*39

$GNGSA,A,3,12,24,25,31,,,,,,,,,1.1,0.8,0.7,3*3C

$GNRMC,164215.00,A,5345.858158,N,00241.777665,W,0.0,,060224,4.8,W,A,V*7F

$GNGGA,164215.00,5345.858158,N,00241.777665,W,1,12,0.8,48.7,M,47.4,M,,*59

$GNVTG,,T,,M,0.0,N,0.0,K,A*3D

$GNDTM,P90,,0000.000025,S,00000.000001,E,0.971,W84*57

$GNGNS,164215.00,5345.858158,N,00241.777665,W,AAA,14,0.8,48.7,47.4,,,V*4E

$GPGSV,3,1,12,05,16,036,21,16,67,282,27,18,63,092,23,23,16,129,25,1*67

$GPGSV,3,2,12,26,68,178,27,27,00,000,34,29,19,075,26,31,19,201,26,1*6D

$GPGSV,3,3,12,07,02,336,,08,02,262,,09,02,306,,28,00,000,,1*6C

$GLGSV,2,1,06,86,24,045,25,88,40,227,27,87,79,035,31,78,55,306,,1*7A

$GLGSV,2,2,06,70,15,016,,77,52,171,,1*7A

$GAGSV,2,1,08,10,18,203,22,12,40,192,28,24,59,289,35,25,08,305,27,7*75

$GAGSV,2,2,08,31,61,147,32,03,07,317,,08,04,004,,26,23,045,,7*70

$GBGSV,2,1,08,13,38,053,27,29,18,237,29,30,74,220,31,05,07,112,,1*7A

$GBGSV,2,2,08,08,31,036,,14,07,008,,27,48,066,,28,04,060,,1*7A

$GPGSV,3,1,12,05,16,036,21,16,67,282,27,18,63,092,23,23,16,129,25,1*67

$GPGSV,3,2,12,26,68,178,27,27,00,000,34,29,19,075,26,31,19,201,26,1*6D

$GBGSV,2,2,08,08,31,036,,14,07,008,,27,48,066,,28,04,060,,1*7A

$GNGSA,A,3,10,12,24,25,31,,,,,,,,1.0,0.8,0.7,3*3C

$GNDTM,P90,,0000.000025,S,00000.000001,E,0.971,W84*57

$GNGNS,164216.00,5345.857763,N,00241.778515,W,AAA,15,0.8,47.5,47.4,,,V*4B

$GPGSV,3,2,12,26,68,178,27,27,00,000,34,29,19,075,26,31,19,201,26,1*6D

$GLGSV,2,1,06,86,24,045,25,88,40,227,27,87,79,035,31,78,55,306,,1*7A

$GAGSV,2,1,08,10,18,203,22,12,40,192,28,24,59,289,35,25,08,305,27,7*75

$GBGSV,2,1,08,13,38,053,27,29,18,237,29,30,74,220,31,05,07,112,,1*7A

$GNGSA,A,3,10,12,24,25,31,,,,,,,,1.0,0.8,0.7,3*3C

$GNRMC,164216.00,A,5345.857763,N,00241.778515,W,0.0,,060224,4.8,W,A,V*76

$GNGSA,A,3,05,16,18,23,26,29,31,,,,,,1.0,0.8,0.7,1*38

$GNGSA,A,3,10,12,24,25,31,,,,,,,,1.0,0.8,0.7,3*3C

$GNDTM,P90,,0000.000025,S,00000.000001,E,0.971,W84*57

$GNGGA,164216.00,5345.857763,N,00241.778515,W,1,12,0.8,47.5,M,47.4,M,,*5D

$GNGGA,164216.00,5345.857763,N,00241.778515,W,1,12,0.8,47.5,M,47.4,M,,*5D

$GPGSV,3,1,12,05,16,036,23,16,67,282,26,18,63,092,23,23,16,129,24,1*65

$GPGSV,3,1,12,05,16,036,23,16,67,282,26,18,63,092,23,23,16,129,24,1*65

$GPGSV,3,2,12,26,68,178,28,27,00,000,34,29,19,075,25,31,19,201,26,1*61

$GPGSV,3,3,12,07,02,336,,08,02,262,,09,02,306,,28,00,000,,1*6C

$GLGSV,2,1,06,86,24,045,24,88,40,227,28,87,79,035,31,78,55,306,,1*74

$GLGSV,2,2,06,70,15,016,,77,52,171,,1*7A

$GPGSV,3,1,12,05,16,036,23,16,67,282,26,18,63,092,23,23,16,129,24,1*65

$GPGSV,3,2,12,26,68,178,28,27,00,000,34,29,19,075,25,31,19,201,26,1*61

$GPGSV,3,3,12,07,02,336,,08,02,262,,09,02,306,,28,00,000,,1*6C

$GLGSV,2,1,06,86,24,045,24,88,40,227,28,87,79,035,31,78,55,306,,1*74

$GLGSV,2,2,06,70,15,016,,77,52,171,,1*7A

$GAGSV,2,1,08,10,18,203,22,12,40,192,28,24,59,289,35,25,08,305,27,7*75

$GPGSV,3,2,12,26,68,178,28,27,00,000,34,29,19,075,25,31,19,201,26,1*61

$GPGSV,3,3,12,07,02,336,,08,02,262,,09,02,306,,28,00,000,,1*6C

$GLGSV,2,1,06,86,24,045,24,88,40,227,28,87,79,035,31,78,55,306,,1*74

$GLGSV,2,2,06,70,15,016,,77,52,171,,1*7A

$GAGSV,2,1,08,10,18,203,22,12,40,192,28,24,59,289,35,25,08,305,27,7*75

$GBGSV,2,1,08,13,38,053,27,29,18,237,29,30,74,220,31,05,07,112,,1*7A

$GAGSV,2,1,08,10,18,203,22,12,40,192,28,24,59,289,35,25,08,305,27,7*75

$GBGSV,2,2,08,08,31,036,,14,07,008,,27,48,066,,28,04,060,,1*7A

$GNDTM,P90,,0000.000025,S,00000.000001,E,0.971,W84*57

$GAGSV,2,2,08,31,61,147,31,03,07,317,,08,04,004,,26,23,045,,7*73

$GNGSA,A,3,05,16,18,23,26,29,31,,,,,,1.0,0.8,0.7,1*38

$GNDTM,P90,,0000.000025,S,00000.000001,E,0.971,W84*57

$GNGGA,164217.00,5345.857560,N,00241.778374,W,1,12,0.8,47.2,M,47.4,M,,*5B

$GNGSA,A,3,05,16,18,23,26,29,31,,,,,,1.0,0.8,0.7,1*38

$GNGSA,A,3,10,12,24,25,31,,,,,,,,1.0,0.8,0.7,3*3C

$GNVTG,,T,,M,0.0,N,0.0,K,A*3D

$GNGNS,164217.00,5345.857560,N,00241.778374,W,AAA,15,0.8,47.2,47.4,,,V*4D

$GNGNS,164217.00,5345.857560,N,00241.778374,W,AAA,15,0.8,47.2,47.4,,,V*4D

$GPGSV,3,1,12,05,16,036,22,16,67,282,36,18,63,092,28,23,16,129,24,1*6E

$GPGSV,3,2,12,26,68,178,31,27,00,000,28,29,19,075,20,31,19,201,29,1*6E

$GPGSV,3,3,12,07,02,336,,08,02,262,,09,02,306,,28,00,000,,1*6C

$GLGSV,2,1,06,78,55,306,24,86,24,045,25,88,40,227,30,87,79,035,26,1*7C

$GLGSV,2,2,06,70,15,016,,77,52,171,,1*7A

$GAGSV,2,1,08,10,18,203,25,12,40,192,22,24,59,289,36,25,08,305,27,7*7B

$GAGSV,2,2,08,31,61,147,28,03,07,317,,08,04,004,,26,23,045,,7*7B

$GBGSV,2,1,08,13,38,053,27,29,18,237,36,30,74,220,31,05,07,112,,1*74

$GPGSV,3,1,12,05,16,036,22,16,67,282,36,18,63,092,28,23,16,129,24,1*6E

$GPGSV,3,2,12,26,68,178,31,27,00,000,28,29,19,075,20,31,19,201,29,1*6E

$GPGSV,3,3,12,07,02,336,,08,02,262,,09,02,306,,28,00,000,,1*6C

$GLGSV,2,1,06,78,55,306,24,86,24,045,25,88,40,227,30,87,79,035,26,1*7C

$GLGSV,2,2,06,70,15,016,,77,52,171,,1*7A

$GAGSV,2,1,08,10,18,203,25,12,40,192,22,24,59,289,36,25,08,305,27,7*7B

$GAGSV,2,2,08,31,61,147,28,03,07,317,,08,04,004,,26,23,045,,7*7B

$GBGSV,2,1,08,13,38,053,27,29,18,237,36,30,74,220,31,05,07,112,,1*74

$GNGSA,A,3,10,12,24,25,31,,,,,,,,1.0,0.7,0.7,3*33

$GNDTM,P90,,0000.000025,S,00000.000001,E,0.971,W84*57

$GNGGA,164218.00,5345.857817,N,00241.778116,W,1,12,0.7,47.4,M,47.4,M,,*56

$GPGSV,3,1,12,05,16,036,22,16,67,282,36,18,63,092,28,23,16,129,24,1*6E

$GLGSV,2,1,06,78,55,306,24,86,24,045,25,88,40,227,30,87,79,035,26,1*7C

$GLGSV,2,2,06,70,15,016,,77,52,171,,1*7A

$GBGSV,2,2,08,08,31,036,,14,07,008,,27,48,066,,28,04,060,,1*7A

$GNGSA,A,3,10,12,24,25,31,,,,,,,,1.0,0.7,0.7,3*33

$GNRMC,164218.00,A,5345.857817,N,00241.778116,W,0.0,,060224,4.8,W,A,V*73

$GBGSV,2,2,08,08,31,036,,14,07,008,,27,48,066,,28,04,060,,1*7A

$GNGSA,A,3,05,16,18,23,26,29,31,,,,,,1.0,0.7,0.7,1*37

$GNGSA,A,3,78,86,87,88,,,,,,,,,1.0,0.7,0.7,2*3D

$GNGNS,164218.00,5345.857817,N,00241.778116,W,AAA,16,0.7,47.4,47.4,,,V*43

$GPGSV,3,1,12,05,16,036,21,16,67,282,33,18,63,092,30,23,16,129,24,1*61

$GPGSV,3,2,12,26,68,178,29,27,00,000,21,29,19,075,20,31,19,201,26,1*61

$GPGSV,3,3,12,07,02,336,,08,02,262,,09,02,306,,28,00,000,,1*6C

$GPGSV,3,1,12,05,16,036,21,16,67,282,33,18,63,092,30,23,16,129,24,1*61

$GPGSV,3,2,12,26,68,178,29,27,00,000,21,29,19,075,20,31,19,201,26,1*61

$GPGSV,3,3,12,07,02,336,,08,02,262,,09,02,306,,28,00,000,,1*6C

$GLGSV,2,1,06,78,55,306,37,86,24,045,24,88,40,227,33,87,79,035,29,1*73

$GLGSV,2,2,06,70,15,016,,77,52,171,,1*7A

$GAGSV,2,1,08,10,18,203,25,12,40,192,25,24,59,289,33,25,08,305,25,7*7B

$GAGSV,2,2,08,26,23,045,21,31,61,147,28,03,07,317,,08,04,004,,7*78

$GPGSV,3,1,12,05,16,036,21,16,67,282,33,18,63,092,30,23,16,129,24,1*61

$GPGSV,3,3,12,07,02,336,,08,02,262,,09,02,306,,28,00,000,,1*6C

$GNGSA,A,3,05,16,18,23,26,29,31,,,,,,1.0,0.7,0.7,1*37

$GLGSV,2,2,06,70,15,016,,77,52,171,,1*7A

$GAGSV,2,1,08,10,18,203,25,12,40,192,25,24,59,289,33,25,08,305,25,7*7B

$GBGSV,2,2,08,05,07,112,,14,07,008,,27,48,066,,28,04,060,,1*75

$GNGSA,A,3,08,,,,,,,,,,,,1.0,0.7,0.7,4*3D

$GNDTM,P90,,0000.000025,S,00000.000001,E,0.971,W84*57

$GNRMC,164219.00,A,5345.858293,N,00241.778364,W,0.0,,060224,4.8,W,A,V*7C

$GNGGA,164219.00,5345.858293,N,00241.778364,W,1,12,0.7,49.0,M,47.4,M,,*53

$GBGSV,2,2,08,05,07,112,,14,07,008,,27,48,066,,28,04,060,,1*75

$GNGSA,A,3,78,86,87,88,,,,,,,,,1.0,0.7,0.7,2*3D

$GNVTG,,T,,M,0.0,N,0.0,K,A*3D

$GNRMC,164219.00,A,5345.858293,N,00241.778364,W,0.0,,060224,4.8,W,A,V*7C

$GNGGA,164219.00,5345.858293,N,00241.778364,W,1,12,0.7,49.0,M,47.4,M,,*53

$GNGSA,A,3,10,12,24,25,26,31,,,,,,,1.0,0.7,0.7,3*37

$GNGSA,A,3,08,,,,,,,,,,,,1.0,0.7,0.7,4*3D

$GNVTG,,T,,M,0.0,N,0.0,K,A*3D

$GNDTM,P90,,0000.000025,S,00000.000001,E,0.971,W84*57

$GNRMC,164219.00,A,5345.858293,N,00241.778364,W,0.0,,060224,4.8,W,A,V*7C

$GNGNS,164219.00,5345.858293,N,00241.778364,W,AAAA,18,0.7,49.0,47.4,,,V*09

$GNGGA,164219.00,5345.858293,N,00241.778364,W,1,12,0.7,49.0,M,47.4,M,,*53

$GPGSV,3,1,12,05,16,036,24,16,67,282,35,18,63,092,30,23,16,129,24,1*62

$GPGSV,3,1,12,05,16,036,24,16,67,282,35,18,63,092,30,23,16,129,24,1*62

$GPGSV,3,1,12,05,16,036,24,16,67,282,35,18,63,092,30,23,16,129,24,1*62

$GPGSV,3,2,12,26,68,178,31,27,00,000,21,29,19,075,20,31,19,201,25,1*6B

$GPGSV,3,3,12,07,02,336,,08,02,262,,09,02,306,,28,00,000,,1*6C

$GLGSV,2,1,06,78,55,306,36,86,24,045,24,88,40,227,34,87,79,035,28,1*74

$GPGSV,3,2,12,26,68,178,31,27,00,000,21,29,19,075,20,31,19,201,25,1*6B

$GPGSV,3,3,12,07,02,336,,08,02,262,,09,02,306,,28,00,000,,1*6C

$GLGSV,2,1,06,78,55,306,36,86,24,045,24,88,40,227,34,87,79,035,28,1*74

$GLGSV,2,2,06,70,15,016,,77,52,171,,1*7A

$GAGSV,2,1,08,10,18,203,22,12,40,192,25,24,59,289,35,25,08,305,27,7*78

$GAGSV,2,1,08,10,18,203,22,12,40,192,25,24,59,289,35,25,08,305,27,7*78

$GLGSV,2,2,06,70,15,016,,77,52,171,,1*7A

$GBGSV,2,1,08,08,31,036,20,13,38,053,27,29,18,237,34,30,74,220,29,1*72

$GNGSA,A,3,78,86,87,88,,,,,,,,,1.0,0.7,0.7,2*3D

$GNDTM,P90,,0000.000025,S,00000.000001,E,0.971,W84*57

$GBGSV,2,1,08,08,31,036,20,13,38,053,27,29,18,237,34,30,74,220,29,1*72

$GNGSA,A,3,10,12,24,25,26,31,,,,,,,1.0,0.7,0.7,3*37

$GNDTM,P90,,0000.000025,S,00000.000001,E,0.971,W84*57

$GNGNS,164220.00,5345.858782,N,00241.778143,W,AAAA,18,0.7,49.3,47.4,,,V*02

$GNGSA,A,3,10,12,24,25,26,31,,,,,,,1.0,0.7,0.7,3*37

$GNGSA,A,3,08,,,,,,,,,,,,1.0,0.7,0.7,4*3D

$GNDTM,P90,,0000.000025,S,00000.000001,E,0.971,W84*57

$GPGSV,3,1,12,05,16,036,21,16,67,282,36,18,63,092,30,23,16,129,24,1*64

$GPGSV,3,2,12,26,68,178,31,27,00,000,21,29,19,075,17,31,19,201,26,1*6C

$GPGSV,3,3,12,07,02,336,,08,02,262,,09,02,306,,28,00,000,,1*6C

$GLGSV,2,1,06,78,55,306,36,86,24,045,25,88,40,227,34,87,79,035,28,1*75

$GPGSV,3,1,12,05,16,036,21,16,67,282,36,18,63,092,30,23,16,129,24,1*64

$GPGSV,3,2,12,26,68,178,31,27,00,000,21,29,19,075,17,31,19,201,26,1*6C

$GPGSV,3,3,12,07,02,336,,08,02,262,,09,02,306,,28,00,000,,1*6C

$GLGSV,2,1,06,78,55,306,36,86,24,045,25,88,40,227,34,87,79,035,28,1*75

$GLGSV,2,2,06,70,15,016,,77,52,171,,1*7A

$GAGSV,2,1,08,10,18,203,22,12,40,192,25,24,59,289,34,25,08,305,27,7*79

$GAGSV,2,2,08,26,23,045,24,31,61,147,20,03,07,317,,08,04,004,,7*75

$GBGSV,2,1,08,08,31,036,21,13,38,053,27,29,18,237,33,30,74,220,29,1*74

$GPGSV,3,1,12,05,16,036,21,16,67,282,36,18,63,092,30,23,16,129,24,1*64

$GPGSV,3,2,12,26,68,178,31,27,00,000,21,29,19,075,17,31,19,201,26,1*6C

$GPGSV,3,3,12,07,02,336,,08,02,262,,09,02,306,,28,00,000,,1*6C

$GLGSV,2,2,06,70,15,016,,77,52,171,,1*7A

$GAGSV,2,2,08,26,23,045,24,31,61,147,20,03,07,317,,08,04,004,,7*75

$GNGSA,A,3,78,86,87,88,,,,,,,,,1.0,0.7,0.7,2*3D

$GBGSV,2,2,08,05,07,112,,14,07,008,,27,48,066,,28,04,060,,1*75

$GNGSA,A,3,78,86,87,88,,,,,,,,,1.0,0.7,0.7,2*3D

$GNDTM,P90,,0000.000025,S,00000.000001,E,0.971,W84*57

$GAGSV,2,1,08,10,18,203,22,12,40,192,25,24,59,289,34,25,08,305,27,7*79

$GAGSV,2,2,08,26,23,045,24,31,61,147,20,03,07,317,,08,04,004,,7*75

$GBGSV,2,2,08,05,07,112,,14,07,008,,27,48,066,,28,04,060,,1*75

$GNGSA,A,3,78,86,87,88,,,,,,,,,1.0,0.7,0.7,2*3D

$GNGSA,A,3,08,,,,,,,,,,,,1.0,0.7,0.7,4*3D

$GNDTM,P90,,0000.000025,S,00000.000001,E,0.971,W84*57

$GNGNS,164221.00,5345.858802,N,00241.778410,W,AAAA,18,0.7,48.9,47.4,,,V*0C

$GNGSA,A,3,08,,,,,,,,,,,,1.0,0.7,0.7,4*3D

$GNVTG,,T,,M,0.0,N,0.0,K,A*3D

$GNRMC,164221.00,A,5345.858802,N,00241.778410,W,0.0,,060224,4.8,W,A,V*71

$GNGGA,164221.00,5345.858802,N,00241.778410,W,1,12,0.7,48.9,M,47.4,M,,*56

$GPGSV,3,1,12,05,16,036,21,16,67,282,35,18,63,092,30,23,16,129,24,1*67

$GPGSV,3,2,12,26,68,178,30,27,00,000,19,29,19,075,17,31,19,201,27,1*67

$GPGSV,3,3,12,07,02,336,,08,02,262,,09,02,306,,28,00,000,,1*6C

$GLGSV,2,1,06,78,55,306,36,86,24,045,25,77,52,171,15,88,40,227,33,1*7B

$GLGSV,2,2,06,87,79,035,28,70,15,016,,1*77

$GAGSV,2,1,08,10,18,203,22,12,40,192,23,24,59,289,33,25,08,305,27,7*78

$GAGSV,2,2,08,26,23,045,24,31,61,147,20,03,07,317,,08,04,004,,7*75

$GBGSV,2,1,08,08,31,036,21,13,38,053,27,30,74,220,30,05,07,112,,1*78

$GBGSV,2,2,08,14,07,008,,27,48,066,,28,04,060,,29,18,237,,1*71

$GNGSA,A,3,05,16,18,23,26,29,31,,,,,,1.0,0.7,0.7,1*37

$GNGSA,A,3,77,78,86,87,88,,,,,,,,1.0,0.7,0.7,2*3D

$GNGSA,A,3,10,12,24,25,26,31,,,,,,,1.0,0.7,0.7,3*37

$GPGSV,3,2,12,26,68,178,30,27,00,000,19,29,19,075,17,31,19,201,27,1*67

$GAGSV,2,1,08,10,18,203,22,12,40,192,23,24,59,289,33,25,08,305,27,7*78

$GNDTM,P90,,0000.000025,S,00000.000001,E,0.971,W84*57

$GNGNS,164222.00,5345.858820,N,00241.778164,W,AAAA,19,0.7,48.8,47.4,,,V*09

$GNGGA,164222.00,5345.858820,N,00241.778164,W,1,12,0.7,48.8,M,47.4,M,,*52

$GPGSV,3,2,12,26,68,178,30,27,00,000,19,29,19,075,17,31,19,201,27,1*67

$GLGSV,2,1,06,78,55,306,36,86,24,045,25,77,52,171,15,88,40,227,33,1*7B

$GAGSV,2,1,08,10,18,203,22,12,40,192,23,24,59,289,33,25,08,305,27,7*78

$GBGSV,2,1,08,08,31,036,21,13,38,053,27,30,74,220,30,05,07,112,,1*78

$GNGSA,A,3,05,16,18,23,26,29,31,,,,,,1.0,0.7,0.7,1*37

$GNGSA,A,3,08,,,,,,,,,,,,1.0,0.7,0.7,4*3D

$GNDTM,P90,,0000.000025,S,00000.000001,E,0.971,W84*57

$GNGNS,164222.00,5345.858820,N,00241.778164,W,AAAA,19,0.7,48.8,47.4,,,V*09

$GNDTM,P90,,0000.000025,S,00000.000001,E,0.971,W84*57

$GNGGA,164222.00,5345.858820,N,00241.778164,W,1,12,0.7,48.8,M,47.4,M,,*52

$GPGSV,3,1,12,05,16,036,21,16,67,282,36,18,63,092,30,23,16,129,24,1*64

$GPGSV,3,2,12,26,68,178,30,27,00,000,20,29,19,075,17,31,19,201,26,1*6C

$GPGSV,3,3,12,07,02,336,,08,02,262,,09,02,306,,28,00,000,,1*6C

$GLGSV,2,1,06,78,55,306,36,86,24,045,23,77,52,171,15,88,40,227,34,1*7A

$GLGSV,2,2,06,87,79,035,29,70,15,016,,1*76

$GAGSV,2,1,08,10,18,203,22,12,40,192,25,24,59,289,34,25,08,305,27,7*79

$GAGSV,2,2,08,26,23,045,23,31,61,147,20,03,07,317,,08,04,004,,7*72

$GBGSV,2,1,08,08,31,036,21,13,38,053,18,30,74,220,29,05,07,112,,1*7C

$GBGSV,2,2,08,14,07,008,,27,48,066,,28,04,060,,29,18,237,,1*71

$GPGSV,3,1,12,05,16,036,21,16,67,282,36,18,63,092,30,23,16,129,24,1*64

$GPGSV,3,2,12,26,68,178,30,27,00,000,20,29,19,075,17,31,19,201,26,1*6C

$GLGSV,2,1,06,78,55,306,36,86,24,045,23,77,52,171,15,88,40,227,34,1*7A

$GNGSA,A,3,08,,,,,,,,,,,,1.0,0.7,0.7,4*3D

$GNGNS,164223.00,5345.858532,N,00241.778485,W,AAAA,18,0.7,48.3,47.4,,,V*06

$GPGSV,3,1,12,05,16,036,21,16,67,282,36,18,63,092,30,23,16,129,24,1*64

$GPGSV,3,3,12,07,02,336,,08,02,262,,09,02,306,,28,00,000,,1*6C

$GAGSV,2,1,08,10,18,203,22,12,40,192,25,24,59,289,34,25,08,305,27,7*79

$GNDTM,P90,,0000.000025,S,00000.000001,E,0.971,W84*57

$GNGSA,A,3,77,78,86,87,88,,,,,,,,1.0,0.7,0.7,2*3D

$GNGSA,A,3,08,,,,,,,,,,,,1.0,0.7,0.7,4*3D

$GNRMC,164223.00,A,5345.858532,N,00241.778485,W,0.0,,060224,4.8,W,A,V*71

$GNGGA,164223.00,5345.858532,N,00241.778485,W,1,12,0.7,48.3,M,47.4,M,,*5C

$GPGSV,3,1,12,05,16,036,18,16,67,282,35,18,63,092,30,23,16,129,24,1*6D

$GPGSV,3,2,12,26,68,178,31,27,00,000,23,29,19,075,17,31,19,201,26,1*6E

$GPGSV,3,3,12,07,02,336,,08,02,262,,09,02,306,,28,00,000,,1*6C

$GLGSV,2,1,06,78,55,306,36,86,24,045,23,77,52,171,19,88,40,227,34,1*76

$GLGSV,2,2,06,87,79,035,29,70,15,016,,1*76

$GAGSV,2,1,08,10,18,203,22,12,40,192,24,24,59,289,34,25,08,305,26,7*79

$GAGSV,2,2,08,26,23,045,23,31,61,147,20,03,07,317,,08,04,004,,7*72

$GBGSV,2,1,08,08,31,036,21,13,38,053,18,30,74,220,29,05,07,112,,1*7C

$GBGSV,2,2,08,14,07,008,,27,48,066,,28,04,060,,29,18,237,,1*71

$GPGSV,3,1,12,05,16,036,18,16,67,282,35,18,63,092,30,23,16,129,24,1*6D

$GPGSV,3,2,12,26,68,178,31,27,00,000,23,29,19,075,17,31,19,201,26,1*6E

$GPGSV,3,3,12,07,02,336,,08,02,262,,09,02,306,,28,00,000,,1*6C

$GLGSV,2,2,06,87,79,035,29,70,15,016,,1*76

$GAGSV,2,2,08,26,23,045,23,31,61,147,20,03,07,317,,08,04,004,,7*72

$GBGSV,2,2,08,14,07,008,,27,48,066,,28,04,060,,29,18,237,,1*71

$GNGSA,A,3,05,16,18,26,29,31,,,,,,,1.0,0.7,0.7,1*36

$GNGSA,A,3,10,12,24,25,26,31,,,,,,,1.0,0.7,0.7,3*37

$GPGSV,3,2,12,26,68,178,31,27,00,000,23,29,19,075,17,31,19,201,26,1*6E

$GLGSV,2,1,06,78,55,306,36,86,24,045,23,77,52,171,19,88,40,227,34,1*76

$GAGSV,2,2,08,26,23,045,23,31,61,147,20,03,07,317,,08,04,004,,7*72

$GNGSA,A,3,10,12,24,25,26,31,,,,,,,1.0,0.7,0.7,3*37

$GNDTM,P90,,0000.000025,S,00000.000001,E,0.971,W84*57

$GNGNS,164224.00,5345.858685,N,00241.778774,W,AAAA,18,0.7,48.4,47.4,,,V*04

$GNGSA,A,3,08,,,,,,,,,,,,1.0,0.7,0.7,4*3D

$GNVTG,,T,,M,0.0,N,0.0,K,A*3D

$GNRMC,164224.00,A,5345.858685,N,00241.778774,W,0.0,,060224,4.8,W,A,V*74

$GPGSV,3,1,12,05,16,036,19,16,67,282,35,18,63,092,30,23,16,129,24,1*6C

$GPGSV,3,2,12,26,68,178,31,27,00,000,21,29,19,075,17,31,19,201,26,1*6C

$GPGSV,3,3,12,07,02,336,,08,02,262,,09,02,306,,28,00,000,,1*6C

$GLGSV,2,1,06,78,55,306,36,86,24,045,22,77,52,171,19,88,40,227,34,1*77

$GLGSV,2,2,06,87,79,035,29,70,15,016,,1*76

$GAGSV,2,1,08,10,18,203,22,12,40,192,24,24,59,289,35,25,08,305,27,7*79

$GAGSV,2,2,08,26,23,045,23,31,61,147,20,03,07,317,,08,04,004,,7*72

$GBGSV,2,1,08,08,31,036,22,13,38,053,18,30,74,220,30,05,07,112,,1*77

$GBGSV,2,2,08,14,07,008,,27,48,066,,28,04,060,,29,18,237,,1*71

$GPGSV,3,1,12,05,16,036,19,16,67,282,35,18,63,092,30,23,16,129,24,1*6C

$GPGSV,3,2,12,26,68,178,31,27,00,000,21,29,19,075,17,31,19,201,26,1*6C

$GPGSV,3,3,12,07,02,336,,08,02,262,,09,02,306,,28,00,000,,1*6C

$GLGSV,2,1,06,78,55,306,36,86,24,045,22,77,52,171,19,88,40,227,34,1*77

$GLGSV,2,2,06,87,79,035,29,70,15,016,,1*76

$GAGSV,2,1,08,10,18,203,22,12,40,192,24,24,59,289,35,25,08,305,27,7*79

$GBGSV,2,2,08,14,07,008,,27,48,066,,28,04,060,,29,18,237,,1*71

$GNDTM,P90,,0000.000025,S,00000.000001,E,0.971,W84*57

$GPGSV,3,2,12,26,68,178,31,27,00,000,21,29,19,075,17,31,19,201,26,1*6C

$GLGSV,2,2,06,87,79,035,29,70,15,016,,1*76

$GBGSV,2,1,08,08,31,036,22,13,38,053,18,30,74,220,30,05,07,112,,1*77

$GNGSA,A,3,10,12,24,25,26,31,,,,,,,1.0,0.7,0.7,3*37

$GNVTG,,T,,M,0.0,N,0.0,K,A*3D

$GNGNS,164225.00,5345.858553,N,00241.778791,W,AAAA,18,0.7,48.4,47.4,,,V*06

$GNGSA,A,3,05,16,18,26,29,31,,,,,,,1.0,0.7,0.7,1*36

$GNGSA,A,3,08,,,,,,,,,,,,1.0,0.7,0.7,4*3D

$GNRMC,164225.00,A,5345.858553,N,00241.778791,W,0.0,,060224,4.8,W,A,V*76

$GNGGA,164225.00,5345.858553,N,00241.778791,W,1,12,0.7,48.4,M,47.4,M,,*5C

$GPGSV,3,1,12,05,16,036,19,16,67,282,36,18,63,092,30,23,16,129,24,1*6F

$GPGSV,3,1,12,05,16,036,19,16,67,282,36,18,63,092,30,23,16,129,24,1*6F

$GPGSV,3,2,12,26,68,178,31,27,00,000,21,29,19,075,17,31,19,201,26,1*6C

$GPGSV,3,3,12,07,02,336,,08,02,262,,09,02,306,,28,00,000,,1*6C

$GLGSV,2,1,06,78,55,306,36,86,24,045,22,77,52,171,18,88,40,227,34,1*76

$GLGSV,2,2,06,87,79,035,30,70,15,016,,1*7E

$GAGSV,2,1,08,10,18,203,23,12,40,192,24,24,59,289,34,25,08,305,27,7*79

$GAGSV,2,2,08,26,23,045,22,31,61,147,20,03,07,317,,08,04,004,,7*73

$GPGSV,3,2,12,26,68,178,31,27,00,000,21,29,19,075,17,31,19,201,26,1*6C

$GPGSV,3,3,12,07,02,336,,08,02,262,,09,02,306,,28,00,000,,1*6C

$GLGSV,2,1,06,78,55,306,36,86,24,045,22,77,52,171,18,88,40,227,34,1*76

$GLGSV,2,2,06,87,79,035,30,70,15,016,,1*7E

$GAGSV,2,1,08,10,18,203,23,12,40,192,24,24,59,289,34,25,08,305,27,7*79

$GAGSV,2,2,08,26,23,045,22,31,61,147,20,03,07,317,,08,04,004,,7*73

$GPGSV,3,1,12,05,16,036,19,16,67,282,36,18,63,092,30,23,16,129,24,1*6F

$GLGSV,2,1,06,78,55,306,36,86,24,045,22,77,52,171,18,88,40,227,34,1*76

$GBGSV,2,1,08,08,31,036,22,13,38,053,18,30,74,220,30,05,07,112,,1*77

$GNGSA,A,3,77,78,86,87,88,,,,,,,,1.0,0.7,0.7,2*3D

$GNVTG,,T,,M,0.0,N,0.0,K,A*3D

$GNGSA,A,3,10,12,24,25,26,31,,,,,,,1.0,0.7,0.7,3*37

$GNVTG,,T,,M,0.0,N,0.0,K,A*3D

$GNGNS,164226.00,5345.858538,N,00241.778817,W,AAAA,18,0.7,48.5,47.4,,,V*08

$GNGSA,A,3,05,16,18,26,29,31,,,,,,,1.0,0.7,0.7,1*36

$GNGSA,A,3,08,,,,,,,,,,,,1.0,0.7,0.7,4*3D

$GNDTM,P90,,0000.000025,S,00000.000001,E,0.971,W84*57

$GNDTM,P90,,0000.000025,S,00000.000001,E,0.971,W84*57

$GNRMC,164226.00,A,5345.858538,N,00241.778817,W,0.0,,060224,4.8,W,A,V*79

$GNGNS,164226.00,5345.858538,N,00241.778817,W,AAAA,18,0.7,48.5,47.4,,,V*08

$GPGSV,3,1,12,05,16,036,19,16,67,282,36,18,63,092,31,23,16,129,24,1*6E

$GPGSV,3,1,12,05,16,036,19,16,67,282,36,18,63,092,31,23,16,129,24,1*6E

$GPGSV,3,2,12,26,68,178,31,27,00,000,23,29,19,075,15,31,19,201,26,1*6C

$GPGSV,3,1,12,05,16,036,19,16,67,282,36,18,63,092,31,23,16,129,24,1*6E

$GPGSV,3,2,12,26,68,178,31,27,00,000,23,29,19,075,15,31,19,201,26,1*6C

$GPGSV,3,3,12,07,02,336,,08,02,262,,09,02,306,,28,00,000,,1*6C

$GLGSV,2,1,06,78,55,306,36,86,24,045,23,77,52,171,18,88,40,227,34,1*77

$GLGSV,2,2,06,87,79,035,29,70,15,016,,1*76

$GAGSV,2,1,08,10,18,203,23,12,40,192,23,24,59,289,35,25,08,305,26,7*7E

$GPGSV,3,2,12,26,68,178,31,27,00,000,23,29,19,075,15,31,19,201,26,1*6C

$GPGSV,3,3,12,07,02,336,,08,02,262,,09,02,306,,28,00,000,,1*6C

$GLGSV,2,1,06,78,55,306,36,86,24,045,23,77,52,171,18,88,40,227,34,1*77

$GBGSV,2,1,08,08,31,036,23,13,38,053,18,30,74,220,28,05,07,112,,1*7F

$GAGSV,2,2,08,26,23,045,22,31,61,147,20,03,07,317,,08,04,004,,7*73

$GNGSA,A,3,77,78,86,87,88,,,,,,,,1.0,0.8,0.7,2*32

$GNGSA,A,3,77,78,86,87,88,,,,,,,,1.0,0.8,0.7,2*32

$GNGGA,164227.00,5345.858495,N,00241.778758,W,1,12,0.8,48.4,M,47.4,M,,*5F

$GPGSV,3,3,12,07,02,336,,08,02,262,,09,02,306,,28,00,000,,1*6C

$GLGSV,2,2,06,87,79,035,29,70,15,016,,1*76

$GNGSA,A,3,05,16,18,26,29,31,,,,,,,1.0,0.8,0.7,1*39

$GNGSA,A,3,08,,,,,,,,,,,,1.0,0.8,0.7,4*32

$GNRMC,164227.00,A,5345.858495,N,00241.778758,W,0.0,,060224,4.8,W,A,V*7A

$GPGSV,3,1,12,05,16,036,19,16,67,282,35,18,63,092,30,23,16,129,14,1*6F

$GPGSV,3,2,12,26,68,178,31,27,00,000,21,29,19,075,15,31,19,201,25,1*6D

$GPGSV,3,3,12,07,02,336,,08,02,262,,09,02,306,,28,00,000,,1*6C

$GLGSV,2,1,06,78,55,306,36,86,24,045,23,77,52,171,18,88,40,227,34,1*77

$GLGSV,2,2,06,87,79,035,29,70,15,016,,1*76

$GPGSV,3,1,12,05,16,036,19,16,67,282,35,18,63,092,30,23,16,129,14,1*6F

$GPGSV,3,2,12,26,68,178,31,27,00,000,21,29,19,075,15,31,19,201,25,1*6D

$GPGSV,3,3,12,07,02,336,,08,02,262,,09,02,306,,28,00,000,,1*6C

$GLGSV,2,1,06,78,55,306,36,86,24,045,23,77,52,171,18,88,40,227,34,1*77

$GLGSV,2,2,06,87,79,035,29,70,15,016,,1*76

$GAGSV,2,1,08,10,18,203,23,12,40,192,24,24,59,289,35,25,08,305,27,7*78

$GAGSV,2,2,08,26,23,045,22,31,61,147,20,03,07,317,,08,04,004,,7*73

$GBGSV,2,1,08,08,31,036,24,13,38,053,18,30,74,220,29,05,07,112,,1*79

$GAGSV,2,2,08,26,23,045,22,31,61,147,20,03,07,317,,08,04,004,,7*73

$GNGSA,A,3,08,,,,,,,,,,,,1.0,0.7,0.7,4*3D

$GNGSA,A,3,05,16,18,23,26,29,31,,,,,,1.0,0.7,0.7,1*37

$GNVTG,,T,,M,0.0,N,0.0,K,A*3D

$GNGGA,164228.00,5345.858508,N,00241.778800,W,1,12,0.7,48.5,M,47.4,M,,*59

$GPGSV,3,3,12,07,02,336,,08,02,262,,09,02,306,,28,00,000,,1*6C

$GAGSV,2,1,08,10,18,203,23,12,40,192,24,24,59,289,35,25,08,305,27,7*78

$GNGSA,A,3,05,16,18,23,26,29,31,,,,,,1.0,0.7,0.7,1*37

$GNGSA,A,3,10,12,24,25,26,,,,,,,,1.0,0.7,0.7,3*35

$GNDTM,P90,,0000.000025,S,00000.000001,E,0.971,W84*57

$GNGNS,164228.00,5345.858508,N,00241.778800,W,AAAA,18,0.7,48.5,47.4,,,V*03

$GNGNS,164228.00,5345.858508,N,00241.778800,W,AAAA,18,0.7,48.5,47.4,,,V*03

$GPGSV,3,1,12,05,16,036,21,16,67,282,35,18,63,092,30,23,16,129,14,1*64

$GPGSV,3,1,12,05,16,036,21,16,67,282,35,18,63,092,30,23,16,129,14,1*64

$GPGSV,3,1,12,05,16,036,21,16,67,282,35,18,63,092,30,23,16,129,14,1*64

$GPGSV,3,2,12,26,68,178,31,27,00,000,23,29,19,075,15,31,19,201,26,1*6C

$GPGSV,3,3,12,07,02,336,,08,02,262,,09,02,306,,28,00,000,,1*6C

$GLGSV,2,1,06,78,55,306,36,86,24,045,24,77,52,171,19,88,40,227,34,1*71

$GLGSV,2,2,06,87,79,035,29,70,15,016,,1*76

$GAGSV,2,1,08,10,18,203,23,12,40,192,24,24,59,289,34,25,08,305,26,7*78

$GAGSV,2,2,08,26,23,045,22,31,61,147,20,03,07,317,,08,04,004,,7*73

$GBGSV,2,1,08,08,31,036,26,13,38,053,18,30,74,220,29,05,07,112,,1*7B

$GBGSV,2,2,08,14,07,008,,27,48,066,,28,04,060,,29,18,237,,1*71

$GNGSA,A,3,05,16,18,23,26,29,31,,,,,,1.0,0.7,0.7,1*37

$GNGSA,A,3,77,78,86,87,88,,,,,,,,1.0,0.7,0.7,2*3D

$GPGSV,3,2,12,26,68,178,31,27,00,000,23,29,19,075,15,31,19,201,26,1*6C

$GPGSV,3,3,12,07,02,336,,08,02,262,,09,02,306,,28,00,000,,1*6C

$GLGSV,2,1,06,78,55,306,36,86,24,045,24,77,52,171,19,88,40,227,34,1*71

$GBGSV,2,1,08,08,31,036,26,13,38,053,18,30,74,220,29,05,07,112,,1*7B

$GNDTM,P90,,0000.000025,S,00000.000001,E,0.971,W84*57

$GNGNS,164229.00,5345.858505,N,00241.778805,W,AAAA,18,0.7,48.5,47.4,,,V*0A

$GPGSV,3,2,12,26,68,178,31,27,00,000,23,29,19,075,15,31,19,201,26,1*6C

$GPGSV,3,3,12,07,02,336,,08,02,262,,09,02,306,,28,00,000,,1*6C

$GLGSV,2,2,06,87,79,035,29,70,15,016,,1*76

$GBGSV,2,2,08,14,07,008,,27,48,066,,28,04,060,,29,18,237,,1*71

$GNGSA,A,3,10,12,24,25,26,,,,,,,,1.0,0.7,0.7,3*35

$GNVTG,,T,,M,0.0,N,0.0,K,A*3D

$GNGGA,164229.00,5345.858505,N,00241.778805,W,1,12,0.7,48.5,M,47.4,M,,*50

$GNGSA,A,3,10,12,24,25,26,,,,,,,,1.0,0.7,0.7,3*35

$GNVTG,,T,,M,0.0,N,0.0,K,A*3D

$GNGGA,164229.00,5345.858505,N,00241.778805,W,1,12,0.7,48.5,M,47.4,M,,*50

$GPGSV,3,1,12,05,16,036,23,16,67,282,35,18,63,092,30,23,16,129,14,1*66

$GPGSV,3,2,12,26,68,178,31,27,00,000,23,29,19,075,17,31,19,201,25,1*6D

$GPGSV,3,3,12,07,02,336,,08,02,262,,09,02,306,,28,00,000,,1*6C

$GLGSV,2,1,06,78,55,306,36,86,24,045,22,77,52,171,19,88,40,227,34,1*77

$GLGSV,2,2,06,87,79,035,29,70,15,016,,1*76

$GPGSV,3,1,12,05,16,036,23,16,67,282,35,18,63,092,30,23,16,129,14,1*66

$GPGSV,3,2,12,26,68,178,31,27,00,000,23,29,19,075,17,31,19,201,25,1*6D

$GPGSV,3,3,12,07,02,336,,08,02,262,,09,02,306,,28,00,000,,1*6C

$GLGSV,2,1,06,78,55,306,36,86,24,045,22,77,52,171,19,88,40,227,34,1*77

$GLGSV,2,2,06,87,79,035,29,70,15,016,,1*76

$GAGSV,2,1,08,10,18,203,23,12,40,192,23,24,59,289,34,25,08,305,26,7*7F

$GBGSV,2,1,08,08,31,036,25,13,38,053,18,30,74,220,30,05,07,112,,1*70

$GNGSA,A,3,77,78,86,87,88,,,,,,,,1.0,0.7,0.7,2*3D

$GNVTG,,T,,M,0.0,N,0.0,K,A*3D

$GBGSV,2,1,08,08,31,036,25,13,38,053,18,30,74,220,30,05,07,112,,1*70

$GNGSA,A,3,10,12,24,25,26,,,,,,,,1.0,0.7,0.7,3*35

$GNVTG,,T,,M,0.0,N,0.0,K,A*3D

$GNGNS,164230.00,5345.858493,N,00241.778820,W,AAAA,18,0.7,48.5,47.4,,,V*0B

$GNGSA,A,3,05,16,18,23,26,29,31,,,,,,1.0,0.7,0.7,1*37

$GNGSA,A,3,77,78,86,87,88,,,,,,,,1.0,0.7,0.7,2*3D

$GNGSA,A,3,10,12,24,25,26,,,,,,,,1.0,0.7,0.7,3*35

$GNGSA,A,3,08,,,,,,,,,,,,1.0,0.7,0.7,4*3D

$GNVTG,,T,,M,0.0,N,0.0,K,A*3D

$GNDTM,P90,,0000.000025,S,00000.000001,E,0.971,W84*57

$GNRMC,164230.00,A,5345.858493,N,00241.778820,W,0.0,,060224,4.8,W,A,V*7A

$GNGNS,164230.00,5345.858493,N,00241.778820,W,AAAA,18,0.7,48.5,47.4,,,V*0B

$GNGGA,164230.00,5345.858493,N,00241.778820,W,1,12,0.7,48.5,M,47.4,M,,*51

$GPGSV,3,1,12,05,16,036,22,16,67,282,35,18,63,092,30,23,16,129,14,1*67

$GPGSV,3,1,12,05,16,036,22,16,67,282,35,18,63,092,30,23,16,129,14,1*67

$GPGSV,3,2,12,26,68,178,31,27,00,000,22,29,19,075,17,31,19,201,25,1*6C

$GPGSV,3,3,12,07,02,336,,08,02,262,,09,02,306,,28,00,000,,1*6C

$GLGSV,2,1,06,78,55,306,36,86,24,045,23,77,52,171,19,88,40,227,34,1*76

$GLGSV,2,2,06,87,79,035,30,70,15,016,,1*7E

$GAGSV,2,1,08,10,18,203,23,12,40,192,23,24,59,289,34,25,08,305,25,7*7C

$GAGSV,2,2,08,26,23,045,22,31,61,147,18,03,07,317,,08,04,004,,7*78

$GBGSV,2,1,08,08,31,036,25,13,38,053,18,30,74,220,29,05,07,112,,1*78

$GBGSV,2,2,08,14,07,008,,27,48,066,,28,04,060,,29,18,237,,1*71

$GNGSA,A,3,05,16,18,23,26,29,31,,,,,,1.0,0.7,0.7,1*37

$GPGSV,3,1,12,05,16,036,22,16,67,282,35,18,63,092,30,23,16,129,14,1*67

$GPGSV,3,2,12,26,68,178,31,27,00,000,22,29,19,075,17,31,19,201,25,1*6C

$GPGSV,3,3,12,07,02,336,,08,02,262,,09,02,306,,28,00,000,,1*6C

$GLGSV,2,1,06,78,55,306,36,86,24,045,23,77,52,171,19,88,40,227,34,1*76

$GLGSV,2,2,06,87,79,035,30,70,15,016,,1*7E

$GBGSV,2,1,08,08,31,036,25,13,38,053,18,30,74,220,29,05,07,112,,1*78

$GNGSA,A,3,05,16,18,23,26,29,31,,,,,,1.0,0.7,0.7,1*37

$GNGSA,A,3,08,,,,,,,,,,,,1.0,0.7,0.7,4*3D

$GNGNS,164231.00,5345.858491,N,00241.778826,W,AAAA,19,0.7,48.5,47.4,,,V*0F

$GLGSV,2,1,06,78,55,306,36,86,24,045,23,77,52,171,19,88,40,227,34,1*76

$GAGSV,2,2,08,26,23,045,22,31,61,147,18,03,07,317,,08,04,004,,7*78

$GNGSA,A,3,05,16,18,23,26,29,31,,,,,,1.0,0.7,0.7,1*37

$GNGSA,A,3,08,,,,,,,,,,,,1.0,0.7,0.7,4*3D

$GNDTM,P90,,0000.000025,S,00000.000001,E,0.971,W84*57

$GNGGA,164231.00,5345.858491,N,00241.778826,W,1,12,0.7,48.5,M,47.4,M,,*54

$GNGSA,A,3,77,78,86,87,88,,,,,,,,1.0,0.7,0.7,2*3D

$GNVTG,,T,,M,0.0,N,0.0,K,A*3D

$GNRMC,164231.00,A,5345.858491,N,00241.778826,W,0.0,,060224,4.8,W,A,V*7F

$GNGGA,164231.00,5345.858491,N,00241.778826,W,1,12,0.7,48.5,M,47.4,M,,*54

$GPGSV,3,1,12,05,16,036,23,16,67,282,35,18,63,092,30,23,16,129,14,1*66

$GPGSV,3,1,12,05,16,036,23,16,67,282,35,18,63,092,30,23,16,129,14,1*66

$GPGSV,3,2,12,26,68,178,31,27,00,000,21,29,19,075,19,31,19,201,25,1*61

$GPGSV,3,3,12,07,02,336,,08,02,262,,09,02,306,,28,00,000,,1*6C

$GLGSV,2,1,06,78,55,306,36,86,24,045,24,77,52,171,17,88,40,227,34,1*7F

$GLGSV,2,2,06,87,79,035,29,70,15,016,,1*76

$GPGSV,3,2,12,26,68,178,31,27,00,000,21,29,19,075,19,31,19,201,25,1*61

$GPGSV,3,3,12,07,02,336,,08,02,262,,09,02,306,,28,00,000,,1*6C

$GLGSV,2,1,06,78,55,306,36,86,24,045,24,77,52,171,17,88,40,227,34,1*7F

$GLGSV,2,2,06,87,79,035,29,70,15,016,,1*76

$GAGSV,2,1,08,10,18,203,23,12,40,192,23,24,59,289,34,25,08,305,26,7*7F

$GPGSV,3,1,12,05,16,036,23,16,67,282,35,18,63,092,30,23,16,129,14,1*66

$GPGSV,3,2,12,26,68,178,31,27,00,000,21,29,19,075,19,31,19,201,25,1*61

$GPGSV,3,3,12,07,02,336,,08,02,262,,09,02,306,,28,00,000,,1*6C

$GLGSV,2,1,06,78,55,306,36,86,24,045,24,77,52,171,17,88,40,227,34,1*7F

$GLGSV,2,2,06,87,79,035,29,70,15,016,,1*76

$GAGSV,2,1,08,10,18,203,23,12,40,192,23,24,59,289,34,25,08,305,26,7*7F

$GNGSA,A,3,08,,,,,,,,,,,,1.0,0.7,0.7,4*3D

$GBGSV,2,2,08,14,07,008,,27,48,066,,28,04,060,,29,18,237,,1*71

$GNGSA,A,3,08,,,,,,,,,,,,1.0,0.7,0.7,4*3D

$GNGNS,164232.00,5345.858485,N,00241.778824,W,AAAA,19,0.7,48.5,47.4,,,V*0B

$GBGSV,2,1,08,08,31,036,23,13,38,053,18,30,74,220,29,05,07,112,,1*7E

$GNGSA,A,3,05,16,18,23,26,29,31,,,,,,1.0,0.7,0.7,1*37

$GNGSA,A,3,08,,,,,,,,,,,,1.0,0.7,0.7,4*3D

$GNDTM,P90,,0000.000025,S,00000.000001,E,0.971,W84*57

$GNGNS,164232.00,5345.858485,N,00241.778824,W,AAAA,19,0.7,48.5,47.4,,,V*0B

$GNVTG,,T,,M,0.0,N,0.0,K,A*3D

$GNRMC,164232.00,A,5345.858485,N,00241.778824,W,0.0,,060224,4.8,W,A,V*7B

$GPGSV,3,1,12,05,16,036,23,16,67,282,35,18,63,092,31,23,16,129,14,1*67

$GPGSV,3,2,12,26,68,178,31,27,00,000,22,29,19,075,19,31,19,201,26,1*61

$GPGSV,3,3,12,07,02,336,,08,02,262,,09,02,306,,28,00,000,,1*6C

$GLGSV,2,1,06,78,55,306,36,86,24,045,21,77,52,171,17,88,40,227,34,1*7A

$GLGSV,2,2,06,87,79,035,29,70,15,016,,1*76

$GAGSV,2,1,08,10,18,203,21,12,40,192,25,24,59,289,34,25,08,305,24,7*79

$GAGSV,2,2,08,26,23,045,20,31,61,147,18,03,07,317,,08,04,004,,7*7A

$GBGSV,2,1,08,08,31,036,23,13,38,053,18,30,74,220,29,05,07,112,,1*7E

$GBGSV,2,2,08,14,07,008,,27,48,066,,28,04,060,,29,18,237,,1*71

$GNGSA,A,3,05,16,18,23,26,29,31,,,,,,1.0,0.7,0.7,1*37

$GNGSA,A,3,77,78,86,87,88,,,,,,,,1.0,0.7,0.7,2*3D

$GNGSA,A,3,10,12,24,25,26,31,,,,,,,1.0,0.7,0.7,3*37

$GNGSA,A,3,77,78,86,87,88,,,,,,,,1.0,0.7,0.7,2*3D

$GNDTM,P90,,0000.000025,S,00000.000001,E,0.971,W84*57

$GNGGA,164233.00,5345.858477,N,00241.778838,W,1,12,0.7,48.5,M,47.4,M,,*51

$GPGSV,3,3,12,07,02,336,,08,02,262,,09,02,306,,28,00,000,,1*6C

$GAGSV,2,1,08,10,18,203,21,12,40,192,25,24,59,289,34,25,08,305,24,7*79

$GNGSA,A,3,05,16,18,23,26,29,31,,,,,,1.0,0.7,0.7,1*37

$GNGSA,A,3,08,,,,,,,,,,,,1.0,0.7,0.7,4*3D

$GNRMC,164233.00,A,5345.858477,N,00241.778838,W,0.0,,060224,4.8,W,A,V*7A

$GNGSA,A,3,08,,,,,,,,,,,,1.0,0.7,0.7,4*3D

$GNDTM,P90,,0000.000025,S,00000.000001,E,0.971,W84*57

$GNGGA,164233.00,5345.858477,N,00241.778838,W,1,12,0.7,48.5,M,47.4,M,,*51

$GPGSV,3,1,12,05,16,036,23,16,67,282,35,18,63,092,31,23,16,129,15,1*66

$GPGSV,3,2,12,26,68,178,31,27,00,000,22,29,19,075,19,31,19,201,25,1*62

$GPGSV,3,3,12,07,02,336,,08,02,262,,09,02,306,,28,00,000,,1*6C

$GLGSV,2,1,06,78,55,306,36,86,24,045,22,77,52,171,17,88,40,227,34,1*79

$GLGSV,2,2,06,87,79,035,30,70,15,016,,1*7E

$GAGSV,2,1,08,10,18,203,21,12,40,192,24,24,59,289,34,25,08,305,26,7*7A

$GAGSV,2,2,08,26,23,045,20,31,61,147,18,03,07,317,,08,04,004,,7*7A

$GBGSV,2,1,08,08,31,036,24,13,38,053,18,30,74,220,29,05,07,112,,1*79

$GPGSV,3,1,12,05,16,036,23,16,67,282,35,18,63,092,31,23,16,129,15,1*66

$GPGSV,3,2,12,26,68,178,31,27,00,000,22,29,19,075,19,31,19,201,25,1*62

$GPGSV,3,3,12,07,02,336,,08,02,262,,09,02,306,,28,00,000,,1*6C

$GLGSV,2,1,06,78,55,306,36,86,24,045,22,77,52,171,17,88,40,227,34,1*79

$GLGSV,2,2,06,87,79,035,30,70,15,016,,1*7E

$GBGSV,2,2,08,14,07,008,,27,48,066,,28,04,060,,29,18,237,,1*71

$GNGSA,A,3,77,78,86,87,88,,,,,,,,1.0,0.7,0.7,2*3D

$GNVTG,,T,,M,0.0,N,0.0,K,A*3D

$GNRMC,164234.00,A,5345.858474,N,00241.778874,W,0.0,,060224,4.8,W,A,V*76

$GNGGA,164234.00,5345.858474,N,00241.778874,W,1,12,0.7,48.6,M,47.4,M,,*5E

$GPGSV,3,2,12,26,68,178,31,27,00,000,22,29,19,075,19,31,19,201,25,1*62

$GLGSV,2,1,06,78,55,306,36,86,24,045,22,77,52,171,17,88,40,227,34,1*79

$GAGSV,2,2,08,26,23,045,20,31,61,147,18,03,07,317,,08,04,004,,7*7A

$GNGSA,A,3,05,16,18,23,26,29,31,,,,,,1.0,0.7,0.7,1*37

$GNVTG,,T,,M,0.0,N,0.0,K,A*3D

$GNRMC,164234.00,A,5345.858474,N,00241.778874,W,0.0,,060224,4.8,W,A,V*76

$GNGSA,A,3,08,,,,,,,,,,,,1.0,0.7,0.7,4*3D

$GNVTG,,T,,M,0.0,N,0.0,K,A*3D

$GNGNS,164234.00,5345.858474,N,00241.778874,W,AAAA,19,0.7,48.6,47.4,,,V*05

$GPGSV,3,1,12,05,16,036,24,16,67,282,35,18,63,092,30,23,16,129,15,1*60

$GPGSV,3,2,12,26,68,178,32,27,00,000,21,29,19,075,19,31,19,201,25,1*62

$GPGSV,3,3,12,07,02,336,,08,02,262,,09,02,306,,28,00,000,,1*6C

$GLGSV,2,1,06,78,55,306,37,86,24,045,24,77,52,171,18,88,40,227,34,1*71

$GLGSV,2,2,06,87,79,035,29,70,15,016,,1*76

$GAGSV,2,1,08,10,18,203,21,12,40,192,25,24,59,289,34,25,08,305,26,7*7B

$GAGSV,2,2,08,26,23,045,20,31,61,147,20,03,07,317,,08,04,004,,7*71

$GBGSV,2,1,08,08,31,036,24,13,38,053,14,30,74,220,29,05,07,112,,1*75

$GBGSV,2,2,08,14,07,008,,27,48,066,,28,04,060,,29,18,237,,1*71

$GPGSV,3,1,12,05,16,036,24,16,67,282,35,18,63,092,30,23,16,129,15,1*60

$GPGSV,3,2,12,26,68,178,32,27,00,000,21,29,19,075,19,31,19,201,25,1*62

$GPGSV,3,3,12,07,02,336,,08,02,262,,09,02,306,,28,00,000,,1*6C

$GLGSV,2,2,06,87,79,035,29,70,15,016,,1*76

$GNGSA,A,3,05,16,18,23,26,29,31,,,,,,1.0,0.7,0.7,1*37

$GPGSV,3,1,12,05,16,036,24,16,67,282,35,18,63,092,30,23,16,129,15,1*60

$GPGSV,3,2,12,26,68,178,32,27,00,000,21,29,19,075,19,31,19,201,25,1*62

$GBGSV,2,1,08,08,31,036,24,13,38,053,14,30,74,220,29,05,07,112,,1*75

$GNVTG,,T,,M,0.0,N,0.0,K,A*3D

$GNGSA,A,3,05,16,18,23,26,29,31,,,,,,1.0,0.7,0.7,1*37

$GNVTG,,T,,M,0.0,N,0.0,K,A*3D

$GNGGA,164235.00,5345.858501,N,00241.778905,W,1,12,0.7,48.5,M,47.4,M,,*58

$GPGSV,3,1,12,05,16,036,23,16,67,282,35,18,63,092,30,23,16,129,15,1*67

$GPGSV,3,2,12,26,68,178,31,27,00,000,22,29,19,075,18,31,19,201,24,1*62

$GPGSV,3,3,12,07,02,336,,08,02,262,,09,02,306,,28,00,000,,1*6C

$GLGSV,2,1,06,78,55,306,36,86,24,045,23,77,52,171,18,88,40,227,34,1*77

$GLGSV,2,2,06,87,79,035,29,70,15,016,,1*76

$GAGSV,2,1,08,10,18,203,21,12,40,192,22,24,59,289,34,25,08,305,27,7*7D

$GAGSV,2,2,08,26,23,045,22,31,61,147,20,03,07,317,,08,04,004,,7*73

$GBGSV,2,1,08,08,31,036,24,13,38,053,14,30,74,220,29,05,07,112,,1*75

$GBGSV,2,2,08,14,07,008,,27,48,066,,28,04,060,,29,18,237,,1*71

$GNGSA,A,3,05,16,18,23,26,29,31,,,,,,1.0,0.7,0.7,1*37

$GNGSA,A,3,77,78,86,87,88,,,,,,,,1.0,0.7,0.7,2*3D

$GBGSV,2,1,08,08,31,036,24,13,38,053,14,30,74,220,29,05,07,112,,1*75

$GNDTM,P90,,0000.000025,S,00000.000001,E,0.971,W84*57

$GPGSV,3,3,12,07,02,336,,08,02,262,,09,02,306,,28,00,000,,1*6C

$GBGSV,2,1,08,08,31,036,24,13,38,053,14,30,74,220,29,05,07,112,,1*75

$GNGSA,A,3,10,12,24,25,26,31,,,,,,,1.0,0.7,0.7,3*37

$GNRMC,164236.00,A,5345.858506,N,00241.778916,W,0.0,,060224,4.8,W,A,V*75

$GNVTG,,T,,M,0.0,N,0.0,K,A*3D

$GNGNS,164236.00,5345.858506,N,00241.778916,W,AAAA,19,0.7,48.6,47.4,,,V*06

$GPGSV,3,1,12,05,16,036,25,16,67,282,35,18,63,092,30,23,16,129,15,1*61

$GPGSV,3,2,12,26,68,178,32,27,00,000,21,29,19,075,18,31,19,201,24,1*62

$GPGSV,3,3,12,07,02,336,,08,02,262,,09,02,306,,28,00,000,,1*6C

$GLGSV,2,1,06,78,55,306,36,86,24,045,23,77,52,171,18,88,40,227,34,1*77

$GPGSV,3,1,12,05,16,036,25,16,67,282,35,18,63,092,30,23,16,129,15,1*61

$GPGSV,3,2,12,26,68,178,32,27,00,000,21,29,19,075,18,31,19,201,24,1*62

$GPGSV,3,3,12,07,02,336,,08,02,262,,09,02,306,,28,00,000,,1*6C

$GLGSV,2,1,06,78,55,306,36,86,24,045,23,77,52,171,18,88,40,227,34,1*77

$GLGSV,2,2,06,87,79,035,29,70,15,016,,1*76

$GAGSV,2,1,08,10,18,203,21,12,40,192,22,24,59,289,34,25,08,305,26,7*7C

$GAGSV,2,2,08,26,23,045,22,31,61,147,20,03,07,317,,08,04,004,,7*73

$GBGSV,2,1,08,08,31,036,24,13,38,053,14,30,74,220,29,05,07,112,,1*75

$GPGSV,3,1,12,05,16,036,25,16,67,282,35,18,63,092,30,23,16,129,15,1*61

$GPGSV,3,2,12,26,68,178,32,27,00,000,21,29,19,075,18,31,19,201,24,1*62

$GLGSV,2,1,06,78,55,306,36,86,24,045,23,77,52,171,18,88,40,227,34,1*77

$GBGSV,2,1,08,08,31,036,24,13,38,053,14,30,74,220,29,05,07,112,,1*75

$GNGSA,A,3,77,78,86,87,88,,,,,,,,1.0,0.7,0.7,2*3D

$GAGSV,2,1,08,10,18,203,21,12,40,192,22,24,59,289,34,25,08,305,26,7*7C

$GAGSV,2,2,08,26,23,045,22,31,61,147,20,03,07,317,,08,04,004,,7*73

$GNGSA,A,3,10,12,24,25,26,31,,,,,,,1.0,0.7,0.7,3*37

$GNRMC,164237.00,A,5345.858508,N,00241.778921,W,0.0,,060224,4.8,W,A,V*7E

$GBGSV,2,2,08,14,07,008,,27,48,066,,28,04,060,,29,18,237,,1*71

$GNGSA,A,3,08,,,,,,,,,,,,1.0,0.7,0.7,4*3D

$GNRMC,164237.00,A,5345.858508,N,00241.778921,W,0.0,,060224,4.8,W,A,V*7E

$GNGGA,164237.00,5345.858508,N,00241.778921,W,1,12,0.7,48.6,M,47.4,M,,*56

$GNGSA,A,3,10,12,24,25,26,31,,,,,,,1.0,0.7,0.7,3*37

$GNGSA,A,3,08,,,,,,,,,,,,1.0,0.7,0.7,4*3D

$GNGNS,164237.00,5345.858508,N,00241.778921,W,AAAA,19,0.7,48.6,47.4,,,V*0D

$GPGSV,3,1,12,05,16,036,26,16,67,282,35,18,63,092,30,23,16,129,17,1*60

$GPGSV,3,1,12,05,16,036,26,16,67,282,35,18,63,092,30,23,16,129,17,1*60

$GPGSV,3,2,12,26,68,178,31,27,00,000,22,29,19,075,18,31,19,201,25,1*63

$GPGSV,3,3,12,07,02,336,,08,02,262,,09,02,306,,28,00,000,,1*6C

$GLGSV,2,1,06,78,55,306,36,86,24,045,23,77,52,171,18,88,40,227,34,1*77

$GPGSV,3,1,12,05,16,036,26,16,67,282,35,18,63,092,30,23,16,129,17,1*60

$GPGSV,3,2,12,26,68,178,31,27,00,000,22,29,19,075,18,31,19,201,25,1*63

$GPGSV,3,3,12,07,02,336,,08,02,262,,09,02,306,,28,00,000,,1*6C

$GLGSV,2,1,06,78,55,306,36,86,24,045,23,77,52,171,18,88,40,227,34,1*77

$GLGSV,2,2,06,87,79,035,28,70,15,016,,1*77

$GAGSV,2,1,08,10,18,203,21,12,40,192,22,24,59,289,34,25,08,305,26,7*7C

$GAGSV,2,2,08,26,23,045,22,31,61,147,20,03,07,317,,08,04,004,,7*73

$GBGSV,2,1,08,08,31,036,24,13,38,053,14,30,74,220,28,05,07,112,,1*74

$GPGSV,3,2,12,26,68,178,31,27,00,000,22,29,19,075,18,31,19,201,25,1*63

$GLGSV,2,1,06,78,55,306,36,86,24,045,23,77,52,171,18,88,40,227,34,1*77

$GAGSV,2,2,08,26,23,045,22,31,61,147,20,03,07,317,,08,04,004,,7*73

$GBGSV,2,2,08,14,07,008,,27,48,066,,28,04,060,,29,18,237,,1*71

$GNGSA,A,3,10,12,24,25,26,31,,,,,,,1.0,0.7,0.7,3*37

$GNGSA,A,3,08,,,,,,,,,,,,1.0,0.7,0.7,4*3D

$GNRMC,164238.00,A,5345.858514,N,00241.778981,W,0.0,,060224,4.8,W,A,V*76

$GNGSA,A,3,05,16,18,23,26,29,31,,,,,,1.0,0.7,0.7,1*37

$GNGSA,A,3,08,,,,,,,,,,,,1.0,0.7,0.7,4*3D

$GNGNS,164238.00,5345.858514,N,00241.778981,W,AAAA,19,0.7,48.7,47.4,,,V*04

$GAGSV,2,1,08,10,18,203,21,12,40,192,22,24,59,289,34,25,08,305,26,7*7C

$GBGSV,2,1,08,08,31,036,24,13,38,053,14,30,74,220,28,05,07,112,,1*74

$GNGSA,A,3,77,78,86,87,88,,,,,,,,1.0,0.7,0.7,2*3D

$GNGSA,A,3,08,,,,,,,,,,,,1.0,0.7,0.7,4*3D

$GNRMC,164238.00,A,5345.858514,N,00241.778981,W,0.0,,060224,4.8,W,A,V*76

$GNGGA,164238.00,5345.858514,N,00241.778981,W,1,12,0.7,48.7,M,47.4,M,,*5F

$GNGNS,164238.00,5345.858514,N,00241.778981,W,AAAA,19,0.7,48.7,47.4,,,V*04

$GNGGA,164238.00,5345.858514,N,00241.778981,W,1,12,0.7,48.7,M,47.4,M,,*5F

$GPGSV,3,1,12,05,16,036,24,16,67,282,34,18,63,092,30,23,16,129,17,1*63

$GPGSV,3,1,12,05,16,036,24,16,67,282,34,18,63,092,30,23,16,129,17,1*63

$GPGSV,3,2,12,26,68,178,31,27,00,000,21,29,19,075,18,31,19,201,25,1*60

$GPGSV,3,3,12,07,02,336,,08,02,262,,09,02,306,,28,00,000,,1*6C

$GPGSV,3,2,12,26,68,178,31,27,00,000,21,29,19,075,18,31,19,201,25,1*60

$GPGSV,3,3,12,07,02,336,,08,02,262,,09,02,306,,28,00,000,,1*6C

$GLGSV,2,1,06,78,55,306,37,86,24,045,24,77,52,171,18,88,40,227,34,1*71

$GLGSV,2,2,06,87,79,035,29,70,15,016,,1*76

$GLGSV,2,1,06,78,55,306,37,86,24,045,24,77,52,171,18,88,40,227,34,1*71

$GLGSV,2,2,06,87,79,035,29,70,15,016,,1*76

$GAGSV,2,1,08,10,18,203,21,12,40,192,22,24,59,289,34,25,08,305,27,7*7D

$GBGSV,2,1,08,08,31,036,23,13,38,053,18,30,74,220,29,05,07,112,,1*7E

$GAGSV,2,1,08,10,18,203,21,12,40,192,22,24,59,289,34,25,08,305,27,7*7D

$GBGSV,2,2,08,14,07,008,,27,48,066,,28,04,060,,29,18,237,,1*71

$GPGSV,3,1,12,05,16,036,24,16,67,282,34,18,63,092,30,23,16,129,17,1*63

$GPGSV,3,3,12,07,02,336,,08,02,262,,09,02,306,,28,00,000,,1*6C

$GLGSV,2,2,06,87,79,035,29,70,15,016,,1*76

$GBGSV,2,1,08,08,31,036,23,13,38,053,18,30,74,220,29,05,07,112,,1*7E

$GNGSA,A,3,10,12,24,25,26,31,,,,,,,1.0,0.7,0.7,3*37

$GNGSA,A,3,77,78,86,87,88,,,,,,,,1.0,0.7,0.7,2*3D

$GNDTM,P90,,0000.000025,S,00000.000001,E,0.971,W84*57

$GBGSV,2,2,08,14,07,008,,27,48,066,,28,04,060,,29,18,237,,1*71

$GNVTG,,T,,M,0.0,N,0.0,K,A*3D

$GNGSA,A,3,08,,,,,,,,,,,,1.0,0.7,0.7,4*3D

$GNVTG,,T,,M,0.0,N,0.0,K,A*3D

$GNRMC,164239.00,A,5345.858516,N,00241.779001,W,0.0,,060224,4.8,W,A,V*75

$GPGSV,3,1,12,05,16,036,24,16,67,282,35,18,63,092,31,23,16,129,17,1*63

$GPGSV,3,2,12,26,68,178,31,27,00,000,21,29,19,075,18,31,19,201,25,1*60

$GPGSV,3,3,12,07,02,336,,08,02,262,,09,02,306,,28,00,000,,1*6C

$GLGSV,2,1,06,78,55,306,37,86,24,045,23,77,52,171,18,88,40,227,34,1*76

$GLGSV,2,2,06,87,79,035,29,70,15,016,,1*76

$GPGSV,3,1,12,05,16,036,24,16,67,282,35,18,63,092,31,23,16,129,17,1*63

$GPGSV,3,2,12,26,68,178,31,27,00,000,21,29,19,075,18,31,19,201,25,1*60

$GPGSV,3,3,12,07,02,336,,08,02,262,,09,02,306,,28,00,000,,1*6C

$GLGSV,2,1,06,78,55,306,37,86,24,045,23,77,52,171,18,88,40,227,34,1*76

$GLGSV,2,2,06,87,79,035,29,70,15,016,,1*76

$GAGSV,2,1,08,10,18,203,21,12,40,192,24,24,59,289,34,25,08,305,26,7*7A

$GBGSV,2,2,08,14,07,008,,27,48,066,,28,04,060,,29,18,237,,1*71

$GAGSV,2,1,08,10,18,203,21,12,40,192,24,24,59,289,34,25,08,305,26,7*7A

$GBGSV,2,2,08,14,07,008,,27,48,066,,28,04,060,,29,18,237,,1*71

$GNGSA,A,3,77,78,86,87,88,,,,,,,,1.0,0.7,0.7,2*3D

$GNGSA,A,3,10,12,24,25,26,31,,,,,,,1.0,0.7,0.7,3*37

$GNRMC,164240.00,A,5345.858514,N,00241.779010,W,0.0,,060224,4.8,W,A,V*79

$GNGSA,A,3,77,78,86,87,88,,,,,,,,1.0,0.7,0.7,2*3D

$GNGSA,A,3,08,,,,,,,,,,,,1.0,0.7,0.7,4*3D

$GNRMC,164240.00,A,5345.858514,N,00241.779010,W,0.0,,060224,4.8,W,A,V*79

$GNGGA,164240.00,5345.858514,N,00241.779010,W,1,12,0.7,48.7,M,47.4,M,,*50

$GPGSV,3,2,12,26,68,178,31,27,00,000,21,29,19,075,18,31,19,201,25,1*60

$GAGSV,2,1,08,10,18,203,21,12,40,192,24,24,59,289,34,25,08,305,26,7*7A

$GBGSV,2,2,08,14,07,008,,27,48,066,,28,04,060,,29,18,237,,1*71

$GNGSA,A,3,77,78,86,87,88,,,,,,,,1.0,0.7,0.7,2*3D

$GNVTG,,T,,M,0.0,N,0.0,K,A*3D

$GNGNS,164240.00,5345.858514,N,00241.779010,W,AAAA,19,0.7,48.7,47.4,,,V*0B

$GNGGA,164240.00,5345.858514,N,00241.779010,W,1,12,0.7,48.7,M,47.4,M,,*50

$GPGSV,3,1,12,05,16,036,24,16,67,282,34,18,63,092,31,23,16,129,17,1*62

$GPGSV,3,2,12,26,68,178,31,27,00,000,22,29,19,075,19,31,19,201,25,1*62

$GPGSV,3,3,12,07,02,336,,08,02,262,,09,02,306,,28,00,000,,1*6C

$GLGSV,2,1,06,78,55,306,36,86,24,045,23,77,52,171,16,88,40,227,34,1*79

$GLGSV,2,2,06,87,79,035,28,70,15,016,,1*77

$GAGSV,2,1,08,10,18,203,21,12,40,192,22,24,59,289,34,25,08,305,26,7*7C

$GAGSV,2,2,08,26,23,045,22,31,61,147,19,03,07,317,,08,04,004,,7*79

$GBGSV,2,1,08,08,31,036,23,13,38,053,23,30,74,220,29,05,07,112,,1*76

$GPGSV,3,1,12,05,16,036,24,16,67,282,34,18,63,092,31,23,16,129,17,1*62

$GPGSV,3,2,12,26,68,178,31,27,00,000,22,29,19,075,19,31,19,201,25,1*62

$GPGSV,3,3,12,07,02,336,,08,02,262,,09,02,306,,28,00,000,,1*6C

$GLGSV,2,1,06,78,55,306,36,86,24,045,23,77,52,171,16,88,40,227,34,1*79

$GLGSV,2,2,06,87,79,035,28,70,15,016,,1*77

$GAGSV,2,1,08,10,18,203,21,12,40,192,22,24,59,289,34,25,08,305,26,7*7C

$GAGSV,2,2,08,26,23,045,22,31,61,147,19,03,07,317,,08,04,004,,7*79

$GBGSV,2,1,08,08,31,036,23,13,38,053,23,30,74,220,29,05,07,112,,1*76

